ZIP,PRIMECITY,STATEABV,COUNTY,LAT,LONG
20007,Washington,DC,District of Columbia,38.912620383779604,-77.07741672
20016,Washington,DC,District of Columbia,38.938223112902726,-77.0914359
20260,Washington,DC,District of Columbia,38.883543774657014,-77.02503244
20018,Washington,DC,District of Columbia,38.925937088683874,-76.97280417
20418,Washington,DC,District of Columbia,38.89280038675311,-77.04776441
20003,Washington,DC,District of Columbia,38.88188071712143,-76.99037199
20011,Washington,DC,District of Columbia,38.95294828664332,-77.02316284
20001,Washington,DC,District of Columbia,38.91001880720171,-77.01801334
20431,Washington,DC,District of Columbia,38.89894957393686,-77.04418588
20009,Washington,DC,District of Columbia,38.91985497000977,-77.0375454
20008,Washington,DC,District of Columbia,38.93535995205025,-77.0594036
20032,Washington,DC,District of Columbia,38.83132348385009,-77.01529985
20037,Washington,DC,District of Columbia,38.89235818,-77.05375985
20551,Washington,DC,District of Columbia,38.8928021,-77.04579991
20566,Washington,DC,District of Columbia,38.89668668353834,-77.05550117
19979,Viola,DE,Kent,39.05036791860872,-75.57646254
19960,Lincoln,DE,Sussex,38.850841783886075,-75.41359857
19734,Townsend,DE,New Castle,39.38377007652485,-75.65020541
19933,Bridgeville,DE,Sussex,38.73700606052808,-75.6058915
19956,Laurel,DE,Sussex,38.54649899583861,-75.53957582
19943,Felton,DE,Kent,39.00564515002934,-75.60758173
19963,Milford,DE,Sussex,38.93348594590725,-75.3780057
19951,Harbeson,DE,Sussex,38.68767427350388,-75.25127618
19938,Clayton,DE,Kent,39.25647690745135,-75.69882106
19946,Frederica,DE,Kent,39.03228018986677,-75.45294565
19975,Selbyville,DE,Sussex,38.46862758572992,-75.17461158
19901,Dover,DE,Kent,39.173582879047096,-75.47719631
20601,Waldorf,MD,Charles,38.618629571961684,-76.85715201
20602,Waldorf,MD,Charles,38.58334758067754,-76.89467608
20603,Waldorf,MD,Charles,38.62972643621122,-76.97476864
20609,Avenue,MD,St Mary's,38.27191270434538,-76.7462137
20629,Dowell,MD,Calvert,38.33995203784764,-76.4539449
20676,Port Republic,MD,Calvert,38.48688927057079,-76.54792677
20733,Churchton,MD,Anne Arundel,38.80624849288922,-76.53138043
20759,Fulton,MD,Howard,39.154162103419445,-76.92872959
20770,Greenbelt,MD,Prince George's,38.99982931900721,-76.88569966
20906,Silver Spring,MD,Montgomery,39.088587588401566,-77.0552297
21042,Ellicott City,MD,Howard,39.27105226804442,-76.89241174
21087,Kingsville,MD,Baltimore,39.44727662599823,-76.41576343
21114,Crofton,MD,Anne Arundel,39.00968857761848,-76.68385864
21162,White Marsh,MD,Baltimore,39.39086566271454,-76.40163734
21217,Baltimore,MD,Baltimore City,39.307039796545666,-76.63832784
21220,Middle River,MD,Baltimore,39.34507689592614,-76.39710376
21612,Bozman,MD,Talbot,38.74933183201764,-76.27689411
21624,Claiborne,MD,Talbot,38.83385168023915,-76.27224922
21644,Ingleside,MD,Queen Anne's,39.11724031926788,-75.87439357
21659,Rhodesdale,MD,Dorchester,38.574442240820645,-75.79987707
21661,Rock Hall,MD,Kent,39.12897748024911,-76.21965067
21782,Sharpsburg,MD,Washington,39.45534900762351,-77.76006864
21814,Bivalve,MD,Wicomico,38.291757916128745,-75.8867285
21875,Delmar,MD,Wicomico,38.440423072695154,-75.54571861
20617,Bryantown,MD,Charles,38.543488428964714,-76.85400973
20619,California,MD,St Mary's,38.29189571248712,-76.52709171
20634,Great Mills,MD,St Mary's,38.24582028839782,-76.49409551
20740,College Park,MD,Prince George's,39.00188528405975,-76.93097209
20781,Hyattsville,MD,Prince George's,38.942264142342495,-76.93654447
21029,Clarksville,MD,Howard,39.206317788789526,-76.95208328
21037,Edgewater,MD,Anne Arundel,38.91477730063261,-76.54362605
21046,Columbia,MD,Howard,39.17359443260486,-76.8418366
21082,Hydes,MD,Baltimore,39.48286135448588,-76.46740599
21156,Upper Falls,MD,Baltimore,39.43752699807465,-76.39696881
21237,Rosedale,MD,Baltimore,39.33936442762436,-76.49458153
21601,Easton,MD,Talbot,38.79353644844779,-76.08341798
21620,Chestertown,MD,Kent,39.20666226577762,-76.08745277
21703,Frederick,MD,Frederick,39.36959909262963,-77.47085418
20608,Aquasco,MD,Prince George's,38.58638898950369,-76.70701593
20626,Coltons Point,MD,St Mary's,38.232685767880525,-76.76428327
20637,Hughesville,MD,Charles,38.52577175475973,-76.77896302
20685,Saint Leonard,MD,Calvert,38.43464284913441,-76.52908107
20723,Laurel,MD,Howard,39.13667540744549,-76.86647901
20732,Chesapeake Beach,MD,Calvert,38.65576373039528,-76.54299754
20818,Cabin John,MD,Montgomery,38.97318373657249,-77.1618715
21017,Belcamp,MD,Harford,39.47597630352673,-76.23672155
21212,Baltimore,MD,Baltimore City,39.36782886801282,-76.61458875
21225,Brooklyn,MD,Anne Arundel,39.225967030045155,-76.61509284
21631,East New Market,MD,Dorchester,38.587839549256515,-75.94600995
21639,Greensboro,MD,Caroline,38.965343342606346,-75.79283696
21665,Sherwood,MD,Talbot,38.752485050898635,-76.34396567
21702,Frederick,MD,Frederick,39.48017796429028,-77.45778861
21784,Sykesville,MD,Carroll,39.40089321064157,-76.9725849
21813,Bishopville,MD,Worcester,38.42659097840978,-75.17296806
21853,Princess Anne,MD,Somerset,38.20446027046024,-75.71045115
21869,Vienna,MD,Dorchester,38.43267767977216,-75.89000113
20611,Bel Alton,MD,Charles,38.46251023643727,-76.9853589
20639,Huntingtown,MD,Calvert,38.60822526893398,-76.60864826
20646,La Plata,MD,Charles,38.52114067,-76.99988169
20659,Mechanicsville,MD,St Mary's,38.418793354439494,-76.7324593
20674,Piney Point,MD,St Mary's,38.133407577517225,-76.50063129
20684,Saint Inigoes,MD,St Mary's,38.14322412855729,-76.41026098
20755,Fort George G Meade,MD,Anne Arundel,39.098907397407665,-76.74477274
20785,Hyattsville,MD,Prince George's,38.91849144040405,-76.8823313
20862,Brinklow,MD,Montgomery,39.18032086237839,-77.01879895
21040,Edgewood,MD,Harford,39.43022525316719,-76.29008845
21054,Gambrills,MD,Anne Arundel,39.02619413326644,-76.6708245
21216,Baltimore,MD,Baltimore City,39.31082051076663,-76.67145823
21625,Cordova,MD,Talbot,38.86926081678475,-75.99218439
21663,Saint Michaels,MD,Talbot,38.78357489401523,-76.23330695
21676,Wittman,MD,Talbot,38.786267102023295,-76.3052507
20606,Abell,MD,St Mary's,38.25423997131471,-76.73872085
20623,Cheltenham,MD,Prince George's,38.74228384044923,-76.83743055
20640,Indian Head,MD,Charles,38.55411666444182,-77.16558006
20645,Issue,MD,Charles,38.298235562968706,-76.9138003
20677,Port Tobacco,MD,Charles,38.49993213151621,-77.04017997
20721,Bowie,MD,Prince George's,38.92105612607737,-76.78879503
20772,Upper Marlboro,MD,Prince George's,38.778490902715156,-76.769124
20816,Bethesda,MD,Montgomery,38.95626020871751,-77.11864095
20853,Rockville,MD,Montgomery,39.10234137168467,-77.09463991
21005,Aberdeen Proving Ground,MD,Harford,39.440387024022705,-76.16769968
21032,Crownsville,MD,Anne Arundel,39.03377058,-76.6039969
21075,Elkridge,MD,Howard,39.204163278264105,-76.75300813
21153,Stevenson,MD,Baltimore,39.416490070565835,-76.70702394
21214,Baltimore,MD,Baltimore City,39.35214401385318,-76.56433101
21613,Cambridge,MD,Dorchester,38.49535632936773,-76.07160881
21771,Mount Airy,MD,Carroll,39.395507407068955,-77.15867724
21849,Parsonsburg,MD,Wicomico,38.37010482795483,-75.46063976
20613,Brandywine,MD,Prince George's,38.67179202312853,-76.8057565
20615,Broomes Island,MD,Calvert,38.420449783479064,-76.54773242
20657,Lusby,MD,Calvert,38.383636236471176,-76.44537376
20705,Beltsville,MD,Prince George's,39.045022067240765,-76.90008278
20745,Oxon Hill,MD,Prince George's,38.805508070275124,-76.99488177
20839,Beallsville,MD,Montgomery,39.17905126824729,-77.41435172
20895,Kensington,MD,Montgomery,39.02690307185367,-77.07777181
20910,Silver Spring,MD,Montgomery,39.00237942410005,-77.03636097
21093,Lutherville Timonium,MD,Baltimore,39.437734460018625,-76.64317751
21146,Severna Park,MD,Anne Arundel,39.07740389241121,-76.55609847
21236,Nottingham,MD,Baltimore,39.38795998345046,-76.48543412
21402,Annapolis,MD,Anne Arundel,38.98816857189427,-76.47205256
21667,Still Pond,MD,Kent,39.343714037949816,-76.05189542
21710,Adamstown,MD,Frederick,39.296503684460276,-77.44942583
21754,Ijamsville,MD,Frederick,39.33680566523306,-77.31129451
21779,Rohrersville,MD,Washington,39.42449286271914,-77.65398973
21804,Salisbury,MD,Wicomico,38.317264398454874,-75.5367026
21829,Girdletree,MD,Worcester,38.09892143650488,-75.38318831
20624,Clements,MD,St Mary's,38.33519413,-76.73448465
20680,Ridge,MD,St Mary's,38.11074155969363,-76.37367019
20754,Dunkirk,MD,Calvert,38.73596914260406,-76.65497239
20763,Savage,MD,Howard,39.1378255,-76.82135589
20814,Bethesda,MD,Montgomery,39.00505559136383,-77.10297815
20852,Rockville,MD,Montgomery,39.05136088634837,-77.12506304
21108,Millersville,MD,Anne Arundel,39.08929603916628,-76.62134945
21205,Baltimore,MD,Baltimore City,39.302239272779566,-76.56407733
21623,Church Hill,MD,Queen Anne's,39.119144285713745,-75.96268308
21632,Federalsburg,MD,Caroline,38.72285283784677,-75.77483332
21653,Newcomb,MD,Talbot,38.74747963690873,-76.17601948
21673,Trappe,MD,Talbot,38.65197050375897,-76.03969565
21872,Whaleyville,MD,Worcester,38.416297662233056,-75.29397204
20620,Callaway,MD,St Mary's,38.23279562716046,-76.52189834
20622,Charlotte Hall,MD,Charles,38.45117405378753,-76.84629665
20630,Drayden,MD,St Mary's,38.166587353474974,-76.47085626
20664,Newburg,MD,Charles,38.34994536472317,-76.9167691
20687,Scotland,MD,St Mary's,38.07587140527117,-76.34404272
20690,Tall Timbers,MD,St Mary's,38.159262153046654,-76.5262451
20692,Valley Lee,MD,St Mary's,38.18349923813902,-76.50688083
20743,Capitol Heights,MD,Prince George's,38.88373601038135,-76.89368735
20860,Sandy Spring,MD,Montgomery,39.15075669250559,-77.03069099
20904,Silver Spring,MD,Montgomery,39.06609639300642,-76.97917216
21157,Westminster,MD,Carroll,39.548920385057286,-76.9815867
21202,Baltimore,MD,Baltimore City,39.297121187444844,-76.60740023
21224,Baltimore,MD,Baltimore City,39.282894977363696,-76.54083943
21622,Church Creek,MD,Dorchester,38.40861320395231,-76.17359398
21638,Grasonville,MD,Queen Anne's,38.94519402185547,-76.20259144
21649,Marydel,MD,Caroline,39.13660599274815,-75.77453219
21758,Knoxville,MD,Frederick,39.34567009478135,-77.66236834
21901,North East,MD,Cecil,39.58613638929191,-75.95815295
45614,Bidwell,OH,Gallia,38.92858709408604,-82.27817105
45663,West Portsmouth,OH,Scioto,38.74504248360575,-83.11191722
45695,Wilkesville,OH,Vinton,39.152890998296535,-82.36335463
45772,Reedsville,OH,Meigs,39.14080673675948,-81.82261939
24726,Herndon,WV,Wyoming,37.52083640591133,-81.37232601
24808,Anawalt,WV,McDowell,37.331379558578504,-81.41046457
24826,Cucumber,WV,McDowell,37.292130313495015,-81.62412963
24872,Panther,WV,McDowell,37.44987099135348,-81.89318575
24878,Premier,WV,McDowell,37.43208215654343,-81.6308816
24957,Maxwelton,WV,Greenbrier,37.88730488149741,-80.40829682
25007,Arnett,WV,Raleigh,37.82518476259626,-81.42764815
25048,Colcord,WV,Raleigh,37.95447490969534,-81.44649808
25118,Kimberly,WV,Fayette,38.11887030049907,-81.32296483
25132,Mammoth,WV,Kanawha,38.29327891023278,-81.33440285
25185,Mount Olive,WV,Fayette,38.22152712144197,-81.23588451
25244,Gay,WV,Jackson,38.770690994350694,-81.54235052
25261,Millstone,WV,Calhoun,38.83029381561505,-81.08885593
25523,Hamlin,WV,Lincoln,38.27933597037259,-82.06755351
25606,Accoville,WV,Logan,37.766442116926605,-81.82879266
43127,Haydenville,OH,Hocking,39.47555605903567,-82.3218079
25840,Fayetteville,WV,Fayette,38.03998822300035,-81.11440518
25976,Meadow Bridge,WV,Fayette,37.84369856332778,-80.86215554
26161,Petroleum,WV,Ritchie,39.167859647010765,-81.25258327
26257,Coalton,WV,Randolph,38.92257221149085,-80.01238231
26270,Harman,WV,Randolph,38.81233908436442,-79.60032812
26327,Berea,WV,Ritchie,39.12284298971563,-80.94058991
26374,Independence,WV,Preston,39.4475738,-79.88104205
26430,Sand Fork,WV,Gilmer,38.88474781343735,-80.75982376
26452,Weston,WV,Lewis,39.03285921,-80.51316288
26591,Worthington,WV,Marion,39.454997985004965,-80.29027203
26679,Mount Nebo,WV,Nicholas,38.165096266587106,-80.79714513
26855,Cabins,WV,Grant,38.96931206310585,-79.25936433
26463,Wyatt,WV,Harrison,39.43176157416321,-80.35013414
24993,Wolfcreek,WV,Monroe,37.66098647,-80.63517886
24817,Bradshaw,WV,McDowell,37.34211386739583,-81.81711871
24822,Clear Fork,WV,Wyoming,37.62912180682579,-81.6875249
24844,Iaeger,WV,McDowell,37.48557634888343,-81.78699741
24857,Lynco,WV,Wyoming,37.69594236472193,-81.67560092
24894,Warriormine,WV,McDowell,37.25192850796351,-81.69046244
25009,Ashford,WV,Boone,38.19238518064559,-81.71303923
25031,Boomer,WV,Fayette,38.146242366923836,-81.27995795
25126,London,WV,Kanawha,38.19068812549574,-81.35407533
25243,Gandeeville,WV,Roane,38.678426275873505,-81.48214867
25248,Kenna,WV,Jackson,38.64257549,-81.61452911
45123,Greenfield,OH,Highland,39.34867665874182,-83.38865286
25521,Griffithsville,WV,Lincoln,38.22907521982794,-81.98647653
25526,Hurricane,WV,Putnam,38.398395647053604,-81.9827812
25540,Midkiff,WV,Lincoln,38.15705676789673,-82.13911575
25661,Williamson,WV,Mingo,37.71053751604817,-82.25373713
25669,Crum,WV,Wayne,37.93181496801221,-82.45188538
25801,Beckley,WV,Raleigh,37.838084319264176,-81.2702136
25918,Shady Spring,WV,Raleigh,37.74574364229958,-81.00993118
25938,Victor,WV,Fayette,38.159911832473334,-81.03446661
26138,Brohard,WV,Ritchie,39.02115497,-81.18159493
26175,Sistersville,WV,Tyler,39.53899769049861,-80.96567574
45648,Lucasville,OH,Scioto,38.921613558037734,-83.01393217
45690,Waverly,OH,Pike,39.13107321360673,-83.01673557
45742,Little Hocking,OH,Washington,39.285630553916256,-81.73011264
45771,Racine,OH,Meigs,38.9820815,-81.89901479
43149,Rockbridge,OH,Hocking,39.537450547076254,-82.57187221
25876,Saulsville,WV,Wyoming,37.63672736,-81.4473335
25969,Jumping Branch,WV,Summers,37.61653716022214,-81.00903176
26134,Belmont,WV,Pleasants,39.37691051460882,-81.27540722
26146,Friendly,WV,Tyler,39.450508971068906,-81.03601873
26180,Walker,WV,Wood,39.200160335411574,-81.36699368
26254,Bowden,WV,Randolph,38.912601678090155,-79.65340014
26422,Reynoldsville,WV,Harrison,39.29798306985793,-80.43322429
26572,Four States,WV,Marion,39.48713534757273,-80.31966015
26617,Dille,WV,Clay,38.48278488620141,-80.82571418
26680,Nallen,WV,Fayette,38.089882958088246,-80.8742393
26802,Brandywine,WV,Pendleton,38.644487016165726,-79.18708022
25231,Advent,WV,Jackson,38.60456771738898,-81.59095621
25909,Prosperity,WV,Raleigh,37.836792692631526,-81.2020207
25685,Naugatuck,WV,Martin,37.79580416324151,-82.31434012
25421,Glengary,WV,Berkeley,39.378210620642456,-78.16382513
24701,Bluefield,WV,Mercer,37.29930272869299,-81.20647313
24716,Bud,WV,Wyoming,37.53327500884151,-81.37335443
24719,Covel,WV,Wyoming,37.48724155,-81.32658609
24731,Kegley,WV,Mercer,37.39735361435329,-81.15163146
24818,Brenton,WV,Wyoming,37.60809310184279,-81.62276179
24884,Squire,WV,McDowell,37.27951042974883,-81.55055374
24941,Gap Mills,WV,Monroe,37.58822592765124,-80.35773901
25045,Clendenin,WV,Kanawha,38.45605915,-81.32474673
25115,Kanawha Falls,WV,Fayette,38.130638014675405,-81.18993226
43115,Clarksburg,OH,Ross,39.48988839840254,-83.16578962
25306,Charleston,WV,Kanawha,38.310723652443386,-81.49085188
25541,Milton,WV,Cabell,38.45882508270478,-82.12709206
25550,Point Pleasant,WV,Mason,38.86653496,-82.07485281
25564,Sod,WV,Lincoln,38.26302225707619,-81.88834726
25671,Dingess,WV,Mingo,37.90407335,-82.20281607
25704,Huntington,WV,Wayne,38.34977137201626,-82.50692646
25853,Helen,WV,Raleigh,37.64619460620878,-81.27824124
25911,Raleigh,WV,Raleigh,37.75239501786913,-81.17845434
25958,Charmco,WV,Greenbrier,38.02155149197732,-80.76075397
26136,Big Bend,WV,Calhoun,38.965536276558026,-81.11467629
26184,Waverly,WV,Wood,39.297424909731646,-81.35086253
26287,Parsons,WV,Tucker,39.166579114254326,-79.69058407
26343,Crawford,WV,Lewis,38.82665080841504,-80.39831443
26377,Jacksonburg,WV,Wetzel,39.491852913422164,-80.64065739
26386,Lumberport,WV,Harrison,39.398777519789306,-80.40263002
26619,Exchange,WV,Braxton,38.775389672378914,-80.73560175
26866,Upper Tract,WV,Pendleton,38.80493362,-79.25117564
24714,Beeson,WV,Mercer,37.47630691726722,-81.18353846
24729,Hiawatha,WV,Mercer,37.44766086,-81.2469042
24733,Lashmeet,WV,Mercer,37.44988659272757,-81.20087995
24747,Rock,WV,Mercer,37.401832392690324,-81.22729093
24861,Maybeury,WV,McDowell,37.36184258775757,-81.36523802
43787,Stockport,OH,Morgan,39.532916520242196,-81.80555879
45656,Oak Hill,OH,Jackson,38.87566002494734,-82.59145268
45658,Patriot,OH,Gallia,38.76321912793288,-82.4140792
45684,Stout,OH,Scioto,38.67544486521047,-83.27782422
45694,Wheelersburg,OH,Scioto,38.74807237476715,-82.78347104
45760,Middleport,OH,Meigs,39.01396936033383,-82.12241311
26615,Copen,WV,Braxton,38.83241824,-80.731395
26707,Bayard,WV,Grant,39.22274463461629,-79.3942128
26808,High View,WV,Hampshire,39.19564441084171,-78.44418673
25667,Chattaroy,WV,Mingo,37.70618889765437,-82.27376768
24985,Wayside,WV,Monroe,37.59988868019756,-80.68944009
20135,Bluemont,VA,Clarke,39.08600409569175,-77.87662111
24712,Athens,WV,Mercer,37.46904616222544,-81.02030378
24737,Montcalm,WV,Mercer,37.35041095248098,-81.26059818
24801,Welch,WV,McDowell,37.46840025387021,-81.55547984
24845,Ikes Fork,WV,Wyoming,37.52641268887438,-81.80038286
24870,Oceana,WV,Wyoming,37.73783782833875,-81.53208183
25008,Artie,WV,Raleigh,37.950414720865176,-81.35762035
25040,Charlton Heights,WV,Fayette,38.13670989413762,-81.24386643
25140,Naoma,WV,Raleigh,37.86738536729683,-81.49733615
25234,Arnoldsburg,WV,Calhoun,38.812928092042704,-81.12350315
25315,Charleston,WV,Kanawha,38.21034724770442,-81.57993904
25401,Martinsburg,WV,Berkeley,39.45646773291245,-77.97266757
25430,Kearneysville,WV,Jefferson,39.34026725426607,-77.93899099
25503,Ashton,WV,Mason,38.60832740988983,-82.11659635
25511,Dunlow,WV,Wayne,38.03190147036803,-82.35636858
25567,Sumerco,WV,Lincoln,38.21973035805497,-81.87291099
25635,Man,WV,Logan,37.71938351101536,-81.87264522
25652,Whitman,WV,Logan,37.78702263632687,-82.04862704
25705,Huntington,WV,Cabell,38.40637832252321,-82.36272942
25839,Fairdale,WV,Raleigh,37.78089051048565,-81.38227105
45646,Latham,OH,Pike,39.076811592575694,-83.31637616
45697,Winchester,OH,Adams,38.93513389114117,-83.66523485
45714,Belpre,OH,Washington,39.31827534041158,-81.61998922
45776,Shade,OH,Athens,39.18736455150328,-82.02279939
26234,Rock Cave,WV,Upshur,38.766187949255865,-80.30834387
26294,Valley Head,WV,Randolph,38.53444297765936,-80.02308236
26321,Alum Bridge,WV,Lewis,39.05458773915452,-80.68730588
26325,Auburn,WV,Ritchie,39.097489501742075,-80.88203072
26681,Nettie,WV,Nicholas,38.229817764154426,-80.71904667
26764,Terra Alta,WV,Preston,39.45040061,-79.56028003
26865,Yellow Spring,WV,Hampshire,39.19055587028365,-78.51928148
24604,Bishop,VA,Tazewell,37.210951192112056,-81.54362273
24724,Freeman,WV,Mercer,37.33596816,-81.31570394
24827,Cyclone,WV,Wyoming,37.75186755861195,-81.65998682
24836,Gary,WV,McDowell,37.36847576786081,-81.5490732
24866,Newhall,WV,McDowell,37.25217079649351,-81.59930795
24938,Frankford,WV,Greenbrier,37.92514583094662,-80.38082878
24963,Peterstown,WV,Monroe,37.43741250296517,-80.77621289
25024,Bloomingrose,WV,Boone,38.157492447113434,-81.62655643
25081,Foster,WV,Boone,38.08233485955065,-81.7687247
25093,Gordon,WV,Boone,37.96534970320308,-81.64138098
25113,Ivydale,WV,Clay,38.55743127841048,-81.03334207
25125,Lizemores,WV,Clay,38.31555626,-81.19074185
25159,Poca,WV,Putnam,38.50186759506157,-81.78060137
25204,Twilight,WV,Boone,37.91543455480071,-81.60911968
25267,Normantown,WV,Gilmer,38.85777310428347,-80.94186728
25276,Spencer,WV,Roane,38.78801945600005,-81.33202272
43158,Union Furnace,OH,Hocking,39.449692126122216,-82.35548688
45144,Manchester,OH,Adams,38.70529712575818,-83.6142978
45644,Kingston,OH,Ross,39.45242856555359,-82.84178085
45653,Minford,OH,Scioto,38.88976738998021,-82.82307229
45671,Rarden,OH,Scioto,38.973413679215916,-83.23776751
45698,Zaleski,OH,Vinton,39.28815713616566,-82.39602326
45741,Langsville,OH,Meigs,39.066534868582075,-82.25271785
45770,Portland,OH,Meigs,38.985831855187406,-81.80238075
24868,Northfork,WV,McDowell,37.42414485451466,-81.402627
24869,North Spring,WV,Wyoming,37.561368274803776,-81.82311376
24916,Asbury,WV,Greenbrier,37.82732536260387,-80.57731035
24945,Greenville,WV,Monroe,37.54108464369138,-80.68798129
24970,Ronceverte,WV,Greenbrier,37.73237189963645,-80.47570586
25049,Comfort,WV,Boone,38.11954818,-81.57312725
25085,Gauley Bridge,WV,Fayette,38.16764184203657,-81.18870462
25103,Hansford,WV,Kanawha,38.18208565396838,-81.38224765
25205,Uneeda,WV,Boone,38.01841908779681,-81.78923457
25239,Cottageville,WV,Jackson,38.846158409977626,-81.83942053
25303,Charleston,WV,Kanawha,38.360331766703496,-81.68683687
25427,Hedgesville,WV,Berkeley,39.526132233719466,-78.0909491
25446,Summit Point,WV,Jefferson,39.240167621005284,-77.95705407
25507,Ceredo,WV,Wayne,38.39950463923069,-82.55171983
25637,Mount Gay,WV,Logan,37.85084597276369,-82.02799779
25672,Edgarton,WV,Mingo,37.570102638036694,-82.10040028
25844,Glen Daniel,WV,Raleigh,37.81055350036313,-81.37018139
25922,Spanishburg,WV,Mercer,37.471387866579924,-81.09971001
26150,Mineral Wells,WV,Wood,39.15662965474216,-81.53697295
26169,Rockport,WV,Wood,39.072930058522964,-81.57117667
26224,Helvetia,WV,Randolph,38.74486193,-80.1747184
26260,Davis,WV,Tucker,39.08923468249048,-79.41147882
26410,Newburg,WV,Preston,39.40322800125623,-79.82388701
45169,Sabina,OH,Clinton,39.50498832681443,-83.65035158
45638,Ironton,OH,Lawrence,38.56220310554957,-82.6760072
45672,Ray,OH,Jackson,39.20546831257287,-82.67581356
45767,New Matamoras,OH,Washington,39.543679687079916,-81.13119752
45622,Creola,OH,Vinton,39.35898171483688,-82.4952093
45662,Portsmouth,OH,Scioto,38.78938217364592,-82.92116
45685,Thurman,OH,Gallia,38.93327978475436,-82.45267132
45696,Willow Wood,OH,Lawrence,38.60359325253138,-82.45203153
45778,Stewart,OH,Athens,39.346722526125745,-81.89554024
43160,Washington Court House,OH,Fayette,39.52870483356222,-83.4391804
37869,Sneedville,TN,Hancock,36.51558900101305,-83.24576548
45616,Blue Creek,OH,Adams,38.760153540824405,-83.30861463
45743,Long Bottom,OH,Meigs,39.07600732711016,-81.85019722
45769,Pomeroy,OH,Meigs,39.10622379748949,-82.04581862
37879,Tazewell,TN,Claiborne,36.48403141741477,-83.48705785
37645,Mount Carmel,TN,Hawkins,36.56276735298433,-82.66245333
41166,Quincy,KY,Lewis,38.63466316125455,-83.09328814
41301,Campton,KY,Wolfe,37.72119683622963,-83.48941392
41534,Hellier,KY,Pike,37.27747737348378,-82.49650612
41554,Phyllis,KY,Pike,37.43918659480999,-82.32445856
41723,Busy,KY,Perry,37.25468847094128,-83.31408738
41754,Krypton,KY,Perry,37.300219646270065,-83.32463438
41764,Smilax,KY,Leslie,37.129254895543475,-83.25543218
41832,Letcher,KY,Letcher,37.15281283949036,-82.95478331
41837,Mayking,KY,Letcher,37.121471232923426,-82.75230716
41181,Willard,KY,Carter,38.207601069077526,-82.87428049
27048,Stoneville,NC,Rockingham,36.476136749561576,-79.9129796
27053,Westfield,NC,Stokes,36.47318813573502,-80.34989672
41168,Rush,KY,Boyd,38.307326612985655,-82.76992899
41174,South Portsmouth,KY,Greenup,38.69843712732972,-83.01390981
41214,Debord,KY,Martin,37.79449202701255,-82.59837587
41268,West Van Lear,KY,Johnson,37.787902587461566,-82.7842969
41365,Rogers,KY,Wolfe,37.71117178693121,-83.62662041
41557,Raccoon,KY,Pike,37.48188816690545,-82.41546851
41630,Garrett,KY,Floyd,37.464184844428516,-82.84995159
41740,Emmalena,KY,Knott,37.35650856271039,-83.04669783
41819,Gordon,KY,Letcher,36.99191958465274,-83.07788958
27507,Bullock,NC,Granville,36.51256637617188,-78.55146717
28631,Grassy Creek,NC,Ashe,36.55218757251475,-81.40994959
27046,Sandy Ridge,NC,Stokes,36.49227774396758,-80.09221176
27537,Henderson,NC,Vance,36.353426797307804,-78.38886171
27553,Manson,NC,Warren,36.48049845068501,-78.30642538
27831,Garysburg,NC,Northampton,36.45606911667521,-77.56570715
27832,Gaston,NC,Northampton,36.51258988,-77.72175132
27022,Lawsonville,NC,Stokes,36.514095066079285,-80.21741172
27818,Como,NC,Hertford,36.50275845067029,-77.01399293
27950,Knotts Island,NC,Currituck,36.52594184062663,-76.00070608
40313,Clearfield,KY,Rowan,38.13213788263899,-83.38973232
40360,Owingsville,KY,Bath,38.15667317,-83.76679152
40810,Bledsoe,KY,Harlan,36.93173520032123,-83.30458469
40816,Chappell,KY,Leslie,37.008812452270654,-83.36672245
41139,Flatwoods,KY,Greenup,38.50925759197202,-82.73287744
41262,Tomahawk,KY,Martin,37.8511406,-82.61378488
41390,Whick,KY,Breathitt,37.418759016514144,-83.37912644
41560,Robinson Creek,KY,Pike,37.39419693458504,-82.57873002
41619,Drift,KY,Floyd,37.48326535692591,-82.74184677
41727,Chavies,KY,Perry,37.35623129316176,-83.32349608
41745,Gays Creek,KY,Perry,37.34454108585837,-83.42845208
41838,Millstone,KY,Letcher,37.19675752839387,-82.75138258
40803,Asher,KY,Leslie,37.045721166592564,-83.42184908
40902,Arjay,KY,Bell,36.848237425702614,-83.62433437
41049,Hillsboro,KY,Fleming,38.27464785976942,-83.64583144
41124,Blaine,KY,Lawrence,38.021458976937176,-82.85117198
41201,Adams,KY,Lawrence,38.062053162115966,-82.75762648
41425,Ezel,KY,Morgan,37.88406659501959,-83.42765213
41539,Kimper,KY,Pike,37.502628609598986,-82.3223117
41553,Phelps,KY,Pike,37.48058895,-82.1602899
41603,Banner,KY,Floyd,37.55933118794476,-82.68704929
41640,Hueysville,KY,Floyd,37.47647764,-82.92645557
41840,Neon,KY,Letcher,37.19964156587393,-82.71810694
27311,Pelham,NC,Caswell,36.481432046247406,-79.47572545
40351,Morehead,KY,Rowan,38.19816741671568,-83.41328503
40380,Stanton,KY,Powell,37.81963720709242,-83.78004648
40844,Hoskinston,KY,Leslie,37.055070100901716,-83.35407412
40874,Warbranch,KY,Leslie,36.98403642513529,-83.47344261
41144,Greenup,KY,Greenup,38.53464667993192,-82.91211109
41234,Meally,KY,Johnson,37.79654719026835,-82.74163835
41257,Stambaugh,KY,Johnson,37.91370279,-82.80441482
41472,West Liberty,KY,Morgan,37.94178860362566,-83.22333745
41544,Mc Carr,KY,Pike,37.59589965799208,-82.17367985
41566,Steele,KY,Pike,37.408304164294435,-82.19208106
41636,Hi Hat,KY,Floyd,37.39769603456596,-82.73087916
41719,Bonnyman,KY,Perry,37.29730147193825,-83.24519366
41759,Sassafras,KY,Knott,37.23212245877681,-83.02523523
41859,Dema,KY,Knott,37.39923398971455,-82.77603539
28675,Sparta,NC,Alleghany,36.50641046978395,-81.13544191
27315,Providence,NC,Caswell,36.506230434819514,-79.39168844
40316,Denniston,KY,Menifee,37.93418273,-83.52895399
40845,Hulen,KY,Bell,36.798973234037305,-83.51754476
40868,Stinnett,KY,Leslie,37.093676928701434,-83.41632947
41189,Tollesboro,KY,Lewis,38.54494736014369,-83.56174469
41274,Wittensville,KY,Johnson,37.86173773928279,-82.81168521
41616,David,KY,Floyd,37.58522704686741,-82.87845438
41643,Lackey,KY,Knott,37.43778944844478,-82.84308089
41653,Prestonsburg,KY,Floyd,37.66029017531572,-82.76468369
41746,Happy,KY,Perry,37.215770217073384,-83.09779051
41821,Hallie,KY,Letcher,37.07563272721441,-83.00712354
40376,Slade,KY,Powell,37.783918263845315,-83.69606315
27024,Lowgap,NC,Surry,36.52401393199958,-80.84023478
40823,Cumberland,KY,Harlan,36.95665104461871,-82.98861897
40982,Scalf,KY,Knox,36.932406720909036,-83.69419411
41102,Ashland,KY,Boyd,38.42041527048632,-82.72427516
41222,Hagerhill,KY,Johnson,37.77037879025711,-82.85030211
41465,Salyersville,KY,Magoffin,37.729854673944224,-83.08491351
41562,Shelbiana,KY,Pike,37.39912418347176,-82.47052107
41563,Shelby Gap,KY,Pike,37.22626070976165,-82.53697111
41722,Bulan,KY,Perry,37.40442359230122,-83.10331046
41826,Jeremiah,KY,Letcher,37.17353574200204,-82.9211777
40856,Miracle,KY,Bell,36.70576161704504,-83.52944326
40927,Closplint,KY,Harlan,36.89080006450372,-83.03442336
41230,Louisa,KY,Lawrence,38.065614869879795,-82.66197159
41264,Ulysses,KY,Lawrence,37.94019645836977,-82.67700963
41572,Virgie,KY,Pike,37.31341659347635,-82.64367449
41606,Bevinsville,KY,Floyd,37.34589127754398,-82.73747914
41667,Weeksbury,KY,Floyd,37.311344231904265,-82.69883431
41812,Deane,KY,Letcher,37.24727620648712,-82.74442714
41825,Jackhorn,KY,Letcher,37.23315392439442,-82.70853094
41845,Premium,KY,Letcher,37.13963987643404,-82.90296474
27574,Roxboro,NC,Person,36.43169700316543,-78.94144212
40322,Frenchburg,KY,Menifee,37.93365959,-83.63331652
40819,Coldiron,KY,Harlan,36.81025853843405,-83.46245345
41129,Catlettsburg,KY,Boyd,38.317542359261516,-82.64070507
23113,Midlothian,VA,Chesterfield,37.53937102,-77.68093931
23120,Moseley,VA,Chesterfield,37.40870561935833,-77.78465983
23128,North,VA,Mathews,37.45123592896319,-76.43199044
23160,State Farm,VA,Goochland,37.62757349687301,-77.84027109
23303,Atlantic,VA,Accomack,37.903421401274365,-75.50563872
23314,Carrollton,VA,Isle of Wight,36.95057611483288,-76.53625886
23421,Parksley,VA,Accomack,37.76568185157745,-75.61431498
23442,Temperanceville,VA,Accomack,37.90128002843715,-75.5687781
23462,Virginia Beach,VA,Virginia Beach City,36.836619197335956,-76.1510585
23601,Newport News,VA,Newport News City,37.058638211509255,-76.46415647
23665,Hampton,VA,Hampton City,37.08960015563433,-76.36303594
23847,Emporia,VA,Emporia City,36.66797009463521,-77.54972683
23888,Wakefield,VA,Sussex,36.95385920920643,-76.97800133
23944,Kenbridge,VA,Lunenburg,36.90559960087571,-78.13317345
24066,Buchanan,VA,Botetourt,37.53818965704198,-79.67821486
24092,Glade Hill,VA,Franklin,37.00157421048445,-79.76306041
24136,Pembroke,VA,Giles,37.31926424446215,-80.60687468
24217,Bee,VA,Dickenson,37.10138441579209,-82.17781353
24230,Coeburn,VA,Wise,36.969280168087224,-82.45451231
24319,Chilhowie,VA,Smyth,36.760461364482474,-81.65779219
24361,Meadowview,VA,Washington,36.76673573063502,-81.84551448
24366,Rocky Gap,VA,Bland,37.264226498807936,-81.10328179
23805,Petersburg,VA,Prince George,37.12923818652338,-77.39530521
23830,Carson,VA,Prince George,37.02096046873264,-77.39770993
23831,Chester,VA,Chesterfield,37.34438562208525,-77.45002022
23838,Chesterfield,VA,Chesterfield,37.31770654698918,-77.63289798
23840,Dewitt,VA,Dinwiddie,37.05638967029304,-77.67074911
23860,Hopewell,VA,Hopewell City,37.28266603733405,-77.22262799
23901,Farmville,VA,Prince Edward,37.32308465804876,-78.41185372
23962,Randolph,VA,Charlotte,36.93861056403017,-78.70399122
24201,Bristol,VA,Bristol City,36.610564751211925,-82.16983464
24273,Norton,VA,Norton City,36.96144078205361,-82.6563265
24313,Barren Springs,VA,Wythe,36.910512434789524,-80.79806023
24426,Covington,VA,Alleghany,37.765869599964695,-80.06921661
24526,Big Island,VA,Bedford,37.554529271095554,-79.40169362
24539,Crystal Hill,VA,Halifax,36.85372815938948,-78.90734037
24613,Falls Mills,VA,Tazewell,37.26199436690442,-81.33856051
20137,Broad Run,VA,Fauquier,38.80683262,-77.72995446
20165,Sterling,VA,Loudoun,39.050671465343015,-77.38842903
20166,Sterling,VA,Loudoun,38.971439353407845,-77.46374259
20175,Leesburg,VA,Loudoun,39.064096605985064,-77.59941544
22066,Great Falls,VA,Fairfax,39.01031620511512,-77.30264232
22310,Alexandria,VA,Fairfax,38.78448397,-77.12229236
22437,Center Cross,VA,Essex,37.77637817768679,-76.81563459
22482,Kilmarnock,VA,Northumberland,37.737223791450184,-76.35244075
22714,Brandy Station,VA,Culpeper,38.520680314543014,-77.8936004
22736,Richardsville,VA,Culpeper,38.396317260417135,-77.6966925
22935,Dyke,VA,Greene,38.25789557084747,-78.55476806
22976,Tyro,VA,Nelson,37.84553589804258,-79.04032433
23055,Fork Union,VA,Fluvanna,37.77060782724796,-78.21849948
23069,Hanover,VA,Hanover,37.769238307370316,-77.32872153
23108,Mascot,VA,King and Queen,37.655276051823535,-76.73017286
23149,Saluda,VA,Gloucester,37.56795708721113,-76.61597235
23163,Susan,VA,Mathews,37.35719588119254,-76.29766399
23221,Richmond,VA,Richmond City,37.55323429440831,-77.49055181
23322,Chesapeake,VA,Chesapeake City,36.62696541259139,-76.26941218
23415,New Church,VA,Accomack,37.974668859241476,-75.53433128
23437,Suffolk,VA,Suffolk City,36.63533560122423,-76.80252821
23701,Portsmouth,VA,Portsmouth City,36.81158824913686,-76.36987953
23828,Branchville,VA,Southampton,36.58694216431449,-77.28554454
23868,Lawrenceville,VA,Brunswick,36.70996025,-77.80379035
23966,Rice,VA,Prince Edward,37.29176860322936,-78.27418862
24054,Axton,VA,Henry,36.67803886895334,-79.70394638
24082,Critz,VA,Patrick,36.629228728787865,-80.13202477
24175,Troutville,VA,Botetourt,37.42590985723876,-79.93789271
24269,Mc Clure,VA,Dickenson,37.08022006220657,-82.37892923
24318,Ceres,VA,Bland,37.00048413178067,-81.38654545
24375,Sugar Grove,VA,Smyth,36.77130058122744,-81.39024267
24458,Mc Dowell,VA,Highland,38.330685140943594,-79.51201285
24467,Mount Sidney,VA,Augusta,38.25920881399005,-78.9724958
24529,Buffalo Junction,VA,Mecklenburg,36.624544353472736,-78.64006894
24061,Blacksburg,VA,Montgomery,37.22540921938354,-80.42671802
20112,Manassas,VA,Prince William,38.67269950950002,-77.4289957
20141,Round Hill,VA,Loudoun,39.116746991680785,-77.79156846
20144,Delaplane,VA,Fauquier,38.92116739121833,-77.93759526
20148,Ashburn,VA,Loudoun,38.99060790094503,-77.53288
20197,Waterford,VA,Loudoun,39.19381704219717,-77.62252877
22172,Triangle,VA,Prince William,38.574169942325426,-77.38948242
22303,Alexandria,VA,Fairfax,38.79401573442656,-77.08161688
22307,Alexandria,VA,Fairfax,38.77068195738684,-77.05700262
22309,Alexandria,VA,Fairfax,38.71922796772779,-77.10726812
22427,Bowling Green,VA,Caroline,38.07180856725275,-77.28624556
22551,Spotsylvania,VA,Spotsylvania,38.17272878535669,-77.70575635
22576,Weems,VA,Lancaster,37.693995313609825,-76.43277567
22644,Maurertown,VA,Shenandoah,38.963595173437376,-78.53138015
22663,White Post,VA,Clarke,39.04999223873042,-78.11717739
22743,Syria,VA,Madison,38.524751549774564,-78.37132019
22964,Piney River,VA,Nelson,37.71723415689751,-78.98866866
23056,Foster,VA,Mathews,37.41812115,-76.38718988
23079,Jamaica,VA,Middlesex,37.72479296075514,-76.68942249
23111,Mechanicsville,VA,Hanover,37.61121664580066,-77.24697073
23150,Sandston,VA,Henrico,37.507151528213136,-77.25399999
23236,Richmond,VA,Chesterfield,37.47437585803566,-77.58639174
23354,Franktown,VA,Northampton,37.478086736030555,-75.90214043
23438,Suffolk,VA,Suffolk City,36.58118766,-76.69718176
23510,Norfolk,VA,Norfolk City,36.85178922115455,-76.29146829
23661,Hampton,VA,Hampton City,37.00803818948253,-76.38602521
23834,Colonial Heights,VA,Colonial Heights City,37.28911461065705,-77.40064919
23857,Gasburg,VA,Brunswick,36.58386324946665,-77.88585148
23938,Dundas,VA,Brunswick,36.90539472281947,-78.00462807
23960,Prospect,VA,Prince Edward,37.31531671841469,-78.55791156
24053,Ararat,VA,Patrick,36.61007115060878,-80.53279733
24087,Elliston,VA,Montgomery,37.22591884534579,-80.24748924
24090,Fincastle,VA,Botetourt,37.526330237036426,-79.88921499
24138,Pilot,VA,Montgomery,37.05053898690326,-80.31681143
24171,Stuart,VA,Patrick,36.670991341269925,-80.23833525
24314,Bastian,VA,Bland,37.17167897525951,-81.20723853
24485,West Augusta,VA,Augusta,38.27522449739174,-79.33164651
24553,Gladstone,VA,Amherst,37.54847054398554,-78.81910823
24586,Ringgold,VA,Pittsylvania,36.60787369411931,-79.28280614
24606,Boissevain,VA,Tazewell,37.28808022945335,-81.39183104
20111,Manassas,VA,Manassas Park City,38.74906892317222,-77.43037447
20117,Middleburg,VA,Loudoun,38.994751748171986,-77.7385312
20124,Clifton,VA,Fairfax,38.78058341676271,-77.39087349
20147,Ashburn,VA,Loudoun,39.04151035023207,-77.47958701
20194,Reston,VA,Fairfax,38.97996125517492,-77.34354079
22043,Falls Church,VA,Fairfax,38.90068506236619,-77.19752164
22204,Arlington,VA,Arlington,38.86074138535539,-77.09895473
22312,Alexandria,VA,Fairfax,38.816864595624196,-77.15368487
22554,Stafford,VA,Stafford,38.422890048048615,-77.383501
22645,Middletown,VA,Frederick,39.021464457334986,-78.2745421
22728,Midland,VA,Fauquier,38.57772141,-77.68638329
22811,Bergton,VA,Rockingham,38.792589443129536,-78.97562496
22844,New Market,VA,Shenandoah,38.658869775883446,-78.66040463
22901,Charlottesville,VA,Albemarle,38.088752270046136,-78.55567327
22989,Woodberry Forest,VA,Madison,38.29326252295008,-78.11940547
23070,Hardyville,VA,Middlesex,37.55059441406657,-76.38526808
22539,Reedville,VA,Northumberland,37.85862866473323,-76.28730998
22567,Unionville,VA,Orange,38.233918933360606,-77.92398151
22611,Berryville,VA,Clarke,39.163745075933114,-77.98513196
22620,Boyce,VA,Clarke,39.06414954740867,-78.0331758
22713,Boston,VA,Culpeper,38.54124308257144,-78.13200646
22742,Sumerduck,VA,Fauquier,38.45889936,-77.71179637
22832,Keezletown,VA,Rockingham,38.45776460656085,-78.75691877
22849,Shenandoah,VA,Page,38.52560504831031,-78.62528483
22942,Gordonsville,VA,Louisa,38.103967082065815,-78.1968466
23065,Gum Spring,VA,Goochland,37.801595016920224,-77.92978182
23103,Manakin Sabot,VA,Goochland,37.65060192510091,-77.7275448
23130,Onemo,VA,Mathews,37.39048647096665,-76.26495862
23185,Williamsburg,VA,Williamsburg City,37.24925794073982,-76.68701138
23228,Henrico,VA,Henrico,37.62587230429713,-77.49126431
23302,Assawoman,VA,Accomack,37.85858125548009,-75.52200909
23801,Fort Lee,VA,Prince George,37.23613076867111,-77.33580409
23836,Chester,VA,Chesterfield,37.35091399614348,-77.33250185
23842,Disputanta,VA,Prince George,37.13624435448908,-77.22086001
23882,Stony Creek,VA,Sussex,36.925885873440315,-77.41541085
23920,Brodnax,VA,Brunswick,36.72454082135995,-77.97267733
23954,Meherrin,VA,Prince Edward,37.10892478448917,-78.38702603
23976,Wylliesburg,VA,Charlotte,36.84822440969759,-78.5796992
24076,Claudville,VA,Patrick,36.59714614051731,-80.42096183
24122,Montvale,VA,Bedford,37.421196594186156,-79.69375072
24368,Rural Retreat,VA,Wythe,36.89284115131617,-81.30004898
24377,Tannersville,VA,Tazewell,37.002070002271964,-81.56957639
24422,Clifton Forge,VA,Alleghany,37.83041383236819,-79.75124833
24433,Doe Hill,VA,Highland,38.41817188785728,-79.46461645
24442,Head Waters,VA,Highland,38.35971166145113,-79.39028359
24534,Clover,VA,Halifax,36.87833224993955,-78.76692802
24558,Halifax,VA,Halifax,36.779129698374376,-78.95746386
24609,Cedar Bluff,VA,Tazewell,37.02952411271355,-81.79506309
24637,Pounding Mill,VA,Tazewell,37.052565193319374,-81.70980772
24323,Crockett,VA,Wythe,36.86514471294242,-81.19971445
24430,Craigsville,VA,Augusta,38.07601014797721,-79.34182164
24540,Danville,VA,Danville City,36.64236143985091,-79.42474435
24556,Goode,VA,Bedford,37.381010203907536,-79.40212305
24572,Madison Heights,VA,Amherst,37.46512191427769,-79.09627476
24581,Norwood,VA,Nelson,37.65692302519044,-78.80982114
20119,Catlett,VA,Fauquier,38.62159935833754,-77.62817999
20132,Purcellville,VA,Loudoun,39.16655719755327,-77.72748926
20143,Catharpin,VA,Prince William,38.86416849400801,-77.56793866
20158,Hamilton,VA,Loudoun,39.14127613,-77.65511825
22003,Annandale,VA,Fairfax,38.830778010710375,-77.21400016
22311,Alexandria,VA,Alexandria City,38.83450598,-77.12307219
22408,Fredericksburg,VA,Spotsylvania,38.21917663060996,-77.44013519
22504,Laneview,VA,Essex,37.763529539033364,-76.72677242
22578,White Stone,VA,Lancaster,37.650613502854945,-76.36267999
22641,Strasburg,VA,Shenandoah,39.07795656571261,-78.38588111
22729,Mitchells,VA,Culpeper,38.35657172979699,-78.01595654
22801,Harrisonburg,VA,Harrisonburg City,38.40519682731767,-78.87927394
22940,Free Union,VA,Albemarle,38.2055427,-78.59703589
23109,Mathews,VA,Mathews,37.432627037765116,-76.32446194
23181,West Point,VA,King William,37.59809970955858,-76.88900678
23315,Carrsville,VA,Isle of Wight,36.738583788626336,-76.84280787
23417,Onancock,VA,Accomack,37.73059937853125,-75.76685947
23503,Norfolk,VA,Norfolk City,36.947262497084814,-76.26229496
25235,Chloe,WV,Calhoun,38.66938791372898,-81.08875138
25302,Charleston,WV,Kanawha,38.39053273940062,-81.59878633
25529,Julian,WV,Boone,38.15569524782947,-81.82447446
25625,Holden,WV,Logan,37.822364744475905,-82.09210618
25845,Glen Fork,WV,Wyoming,37.70289624907439,-81.51112435
25871,Mabscott,WV,Raleigh,37.769170576803205,-81.21173484
25979,Pipestem,WV,Summers,37.51260843786637,-80.91735817
26152,Munday,WV,Wirt,38.98356836181949,-81.19313831
26208,Camden On Gauley,WV,Webster,38.347814664138454,-80.57313632
26250,Belington,WV,Barbour,39.02757324409218,-79.96199808
26273,Huttonsville,WV,Randolph,38.629934676621446,-79.9630069
26349,Galloway,WV,Barbour,39.22747541207452,-80.11082845
26416,Philippi,WV,Barbour,39.163505082300674,-80.02245889
26568,Enterprise,WV,Harrison,39.42534556128916,-80.27727507
26582,Mannington,WV,Marion,39.53113103739354,-80.38768439
26678,Mount Lookout,WV,Nicholas,38.16881886992668,-80.91085711
26722,Green Spring,WV,Hampshire,39.497784485106344,-78.63460357
24715,Bramwell,WV,Mercer,37.33410457733478,-81.3293095
24813,Bartley,WV,McDowell,37.35953214140469,-81.72483343
24823,Coal Mountain,WV,Wyoming,37.667599220123215,-81.74106935
24850,Jolo,WV,McDowell,37.37805930003136,-81.88515414
24871,Pageton,WV,McDowell,37.31698106868139,-81.48551322
24924,Buckeye,WV,Pocahontas,38.19297340790469,-80.15173024
24935,Forest Hill,WV,Summers,37.56365781470256,-80.80341801
24944,Green Bank,WV,Pocahontas,38.39921152,-79.77109
24966,Renick,WV,Greenbrier,38.03346069052473,-80.3528425
24981,Talcott,WV,Summers,37.63257049073328,-80.73969167
25123,Leon,WV,Mason,38.731727007750585,-81.90212962
25136,Montgomery,WV,Fayette,38.15865470552015,-81.31976633
25164,Procious,WV,Clay,38.50405158006214,-81.19374495
25214,Winifrede,WV,Kanawha,38.18946047527824,-81.55125204
25251,Left Hand,WV,Roane,38.62119949,-81.23175255
25309,Charleston,WV,Kanawha,38.31177967010936,-81.75715529
25434,Paw Paw,WV,Hampshire,39.457892928035406,-78.45039093
25608,Baisden,WV,Mingo,37.57507026585882,-81.89162505
25644,Sarah Ann,WV,Logan,37.70190936630402,-82.00109975
25848,Glen Rogers,WV,Wyoming,37.71428865881261,-81.43115861
25864,Layland,WV,Raleigh,37.87948167766725,-81.01779063
26137,Big Springs,WV,Gilmer,39.00644357854143,-81.03848363
26222,Hacker Valley,WV,Webster,38.661246506647245,-80.37123248
26236,Selbyville,WV,Upshur,38.71758335256685,-80.23086646
26384,Linn,WV,Gilmer,38.974669009555996,-80.71779774
26761,Shanks,WV,Hampshire,39.27305435523555,-78.69967914
26847,Petersburg,WV,Grant,38.958102860300976,-79.15187566
26667,Drennen,WV,Nicholas,38.23836662184662,-80.99907226
24736,Matoaka,WV,Mercer,37.45043577172642,-81.29584998
24811,Avondale,WV,McDowell,37.40881728890979,-81.75386934
24815,Berwind,WV,McDowell,37.220336816823675,-81.63026065
24839,Hanover,WV,Wyoming,37.582179023460846,-81.76501407
24888,Thorpe,WV,McDowell,37.36197378340554,-81.48888375
24925,Caldwell,WV,Greenbrier,37.72917340457483,-80.38344634
25019,Bickmore,WV,Clay,38.37665044313251,-81.08952484
25030,Bomont,WV,Clay,38.45028944063371,-81.22602676
25114,Jeffrey,WV,Boone,37.98195664658111,-81.79862552
25134,Miami,WV,Kanawha,38.13597996919379,-81.48549646
25187,Southside,WV,Mason,38.72618674056121,-82.01879739
25206,Van,WV,Boone,37.959571004088026,-81.69300238
25252,Le Roy,WV,Jackson,38.883440783081845,-81.5367943
25314,Charleston,WV,Kanawha,38.29706928826324,-81.65466357
25420,Gerrardstown,WV,Berkeley,39.38095938754861,-78.11967149
25508,Chapmanville,WV,Logan,37.96389937929208,-82.01388561
25534,Kiahsville,WV,Wayne,38.080621081670664,-82.27778859
25611,Bruno,WV,Logan,37.68318745573631,-81.87065728
25647,Switzer,WV,Logan,37.78599243636089,-81.9874203
25812,Ansted,WV,Fayette,38.14045175382165,-81.11512964
25813,Beaver,WV,Raleigh,37.783110427957446,-81.09999808
25843,Ghent,WV,Raleigh,37.621276772502675,-81.1412496
25901,Oak Hill,WV,Fayette,37.93573366276121,-81.11239894
25908,Princewick,WV,Raleigh,37.66776731052403,-81.2443498
25928,Stephenson,WV,Wyoming,37.55481587631826,-81.34126529
25972,Leslie,WV,Greenbrier,38.03574472714238,-80.72221682
25989,White Oak,WV,Raleigh,37.67861658,-81.04586077
26143,Elizabeth,WV,Wirt,39.06337486194705,-81.37640708
26218,French Creek,WV,Upshur,38.84504168245536,-80.26797719
26301,Clarksburg,WV,Harrison,39.28627499425683,-80.37738528
26342,Coxs Mills,WV,Gilmer,39.02481212396996,-80.84697137
26376,Ireland,WV,Braxton,38.77565152,-80.46866705
26537,Kingwood,WV,Preston,39.484553453385004,-79.71187319
26720,Gormania,WV,Grant,39.277650193909224,-79.33124063
26739,Mount Storm,WV,Grant,39.21505752208655,-79.26471489
26845,Old Fields,WV,Hardy,39.16735697114038,-78.96190551
26884,Seneca Rocks,WV,Pendleton,38.84272852945238,-79.40118234
26289,Red Creek,WV,Tucker,38.98970966892944,-79.51269057
23662,Poquoson,VA,Poquoson City,37.13176223335463,-76.3567823
23841,Dinwiddie,VA,Dinwiddie,37.05415435128289,-77.55303867
23889,Warfield,VA,Brunswick,36.89719615170138,-77.74396897
24014,Roanoke,VA,Roanoke City,37.22427736387902,-79.91281597
24059,Bent Mountain,VA,Roanoke,37.15575801369687,-80.1316092
24079,Copper Hill,VA,Floyd,37.053915176481695,-80.15419915
24104,Huddleston,VA,Bedford,37.13546429434453,-79.48772486
24147,Rich Creek,VA,Giles,37.40182010205378,-80.82818192
24219,Big Stone Gap,VA,Wise,36.848305711313316,-82.74645184
24244,Duffield,VA,Scott,36.71077326647291,-82.79783746
24301,Pulaski,VA,Pulaski,37.06319492589981,-80.79732585
24322,Cripple Creek,VA,Wythe,36.80536972514481,-81.11950358
24351,Lambsburg,VA,Carroll,36.58082490986957,-80.76587406
24421,Churchville,VA,Augusta,38.26388897197854,-79.2001864
24487,Williamsville,VA,Bath,38.201018604176014,-79.58102432
24527,Blairs,VA,Pittsylvania,36.73240056,-79.34576288
24563,Hurt,VA,Pittsylvania,37.06109237495554,-79.27386424
24571,Lynch Station,VA,Campbell,37.13669918592981,-79.37981613
24589,Scottsburg,VA,Halifax,36.75527468231643,-78.75555841
24631,Oakwood,VA,Buchanan,37.220202069716215,-81.99713173
20155,Gainesville,VA,Prince William,38.80642225678684,-77.6214759
22015,Burke,VA,Fairfax,38.787860748914646,-77.28134914
22134,Quantico,VA,Prince William,38.53185886833728,-77.40909163
22151,Springfield,VA,Fairfax,38.80283527090308,-77.20960776
22153,Springfield,VA,Fairfax,38.74444396374368,-77.2344432
22182,Vienna,VA,Fairfax,38.93611204549346,-77.27361223
22193,Woodbridge,VA,Prince William,38.64232411754637,-77.34875346
22205,Arlington,VA,Arlington,38.88337072692444,-77.13953785
22304,Alexandria,VA,Alexandria City,38.81362722462686,-77.11498482
22454,Dunnsville,VA,Essex,37.83598289748151,-76.85031572
22509,Loretto,VA,Essex,38.106428795361886,-77.06667883
22654,Star Tannery,VA,Frederick,39.06864521334816,-78.45858086
22722,Haywood,VA,Madison,38.4630518,-78.22641504
22738,Rochelle,VA,Madison,38.286901735877755,-78.27688425
22923,Barboursville,VA,Orange,38.18667228241038,-78.32407237
22938,Faber,VA,Nelson,37.86253469,-78.78246639
22959,North Garden,VA,Albemarle,37.937585316334804,-78.64795046
23009,Aylett,VA,King William,37.81039333588652,-77.18718142
23040,Cumberland,VA,Cumberland,37.51018287580777,-78.2491795
23124,New Kent,VA,New Kent,37.55269089511125,-77.05946242
23222,Richmond,VA,Richmond City,37.582660642128985,-77.41893413
23231,Henrico,VA,Henrico,37.44219691923075,-77.31902568
23337,Wallops Island,VA,Accomack,37.93333704935791,-75.46684617
23452,Virginia Beach,VA,Virginia Beach City,36.84605659878755,-76.0919847
23457,Virginia Beach,VA,Virginia Beach City,36.616828901275724,-76.01582518
23518,Norfolk,VA,Norfolk City,36.91621603577784,-76.21602517
23666,Hampton,VA,Hampton City,37.058171826899034,-76.40816417
23690,Yorktown,VA,York,37.21829754352553,-76.52371392
23833,Church Road,VA,Dinwiddie,37.21092800253857,-77.66945254
23867,Jarratt,VA,Greensville,36.82060173011035,-77.48774827
23887,Valentines,VA,Brunswick,36.567600510121196,-77.8165498
23950,La Crosse,VA,Mecklenburg,36.66008586815403,-78.07698184
24095,Goodview,VA,Bedford,37.223056173945444,-79.73788707
24134,Pearisburg,VA,Giles,37.24594996776902,-80.7790153
24149,Riner,VA,Montgomery,37.02278377212624,-80.43422539
24226,Clinchco,VA,Dickenson,37.142215778884136,-82.33383917
24317,Cana,VA,Carroll,36.60138290151046,-80.6687604
24401,Staunton,VA,Staunton City,38.13257888130586,-79.08843964
24464,Montebello,VA,Nelson,37.860812402845696,-79.10398165
24483,Vesuvius,VA,Rockbridge,37.814845342136515,-79.22561269
24557,Gretna,VA,Pittsylvania,36.96659724,-79.30402028
24595,Sweet Briar,VA,Amherst,37.55903814253362,-79.08418949
24639,Raven,VA,Tazewell,37.17361281291513,-81.90465774
22746,Viewtown,VA,Rappahannock,38.62922325242609,-78.01952159
20152,Chantilly,VA,Loudoun,38.89979941903527,-77.51917583
20164,Sterling,VA,Loudoun,39.01242811013756,-77.39586202
20187,Warrenton,VA,Fauquier,38.71850283906421,-77.74276517
20190,Reston,VA,Fairfax,38.959672031460585,-77.33799276
22060,Fort Belvoir,VA,Fairfax,38.70523708269308,-77.15634936
22308,Alexandria,VA,Fairfax,38.72960212920632,-77.05876061
22460,Farnham,VA,Richmond,37.87611529244075,-76.60691167
22511,Lottsburg,VA,Northumberland,37.98379446,-76.5030381
22535,Port Royal,VA,Caroline,38.123154150455086,-77.19618123
08323,Greenwich,NJ,Cumberland,39.395648860657246,-75.36600024
20105,Aldie,VA,Loudoun,38.95950037,-77.60831409
20121,Centreville,VA,Fairfax,38.817483861570814,-77.46017578
20171,Herndon,VA,Fairfax,38.92459247,-77.39822545
20180,Lovettsville,VA,Loudoun,39.26781943714257,-77.63806302
22181,Vienna,VA,Fairfax,38.90526661218979,-77.294663
22443,Colonial Beach,VA,Westmoreland,38.18078324676902,-76.99778041
08079,Salem,NJ,Salem,39.54282559393109,-75.43184251
22627,Flint Hill,VA,Rappahannock,38.765555752422124,-78.11364077
22701,Culpeper,VA,Culpeper,38.44037497993232,-77.99634991
22734,Remington,VA,Fauquier,38.52755376182599,-77.81117593
22820,Criders,VA,Rockingham,38.743887493405666,-79.00947563
22821,Dayton,VA,Rockingham,38.46347175789811,-79.07427901
22834,Linville,VA,Rockingham,38.557094591975805,-78.857687
22841,Mount Crawford,VA,Rockingham,38.33886251996895,-78.89413069
22939,Fishersville,VA,Augusta,38.10571931,-78.97287201
22980,Waynesboro,VA,Waynesboro City,38.09587230847483,-78.88584519
23050,Dutton,VA,Mathews,37.48916128639302,-76.41986748
23175,Urbanna,VA,Middlesex,37.65346669893936,-76.62411656
23219,Richmond,VA,Richmond City,37.540792458948744,-77.4348418
23358,Hacksneck,VA,Accomack,37.64407567143199,-75.86492779
23418,Onley,VA,Accomack,37.63828047968366,-75.66931294
23502,Norfolk,VA,Norfolk City,36.86275881965453,-76.20981937
23604,Fort Eustis,VA,Newport News City,37.131956198199816,-76.58902644
23692,Yorktown,VA,York,37.181081036631845,-76.45867983
23875,Prince George,VA,Prince George,37.22940568041064,-77.25843214
23919,Bracey,VA,Mecklenburg,36.59096507120693,-78.13292309
24016,Roanoke,VA,Roanoke City,37.272069686031585,-79.95458619
24083,Daleville,VA,Botetourt,37.40608190665568,-79.92033297
24093,Glen Lyn,VA,Giles,37.387874013605234,-80.85656426
24165,Spencer,VA,Henry,36.58365806867401,-80.05316854
24220,Birchleaf,VA,Dickenson,37.119574833848844,-82.22639599
24237,Dante,VA,Dickenson,37.039389317927316,-82.26425318
24279,Pound,VA,Wise,37.103810301218736,-82.61902019
24330,Fries,VA,Grayson,36.723746014389576,-81.0247103
24352,Laurel Fork,VA,Carroll,36.71546039997138,-80.53434124
24411,Augusta Springs,VA,Augusta,38.11784875,-79.33051607
24473,Rockbridge Baths,VA,Rockbridge,37.912891007068666,-79.41049273
24501,Lynchburg,VA,Lynchburg City,37.35568012649054,-79.15609681
24620,Hurley,VA,Buchanan,37.43332039308188,-82.01931012
20110,Manassas,VA,Manassas City,38.74635998,-77.48699531
20129,Paeonian Springs,VA,Loudoun,39.16671776657591,-77.59396118
20186,Warrenton,VA,Fauquier,38.69044867684614,-77.84300106
22031,Fairfax,VA,Fairfax,38.85954554567152,-77.25990895
22041,Falls Church,VA,Fairfax,38.84849681740328,-77.14207469
22203,Arlington,VA,Arlington,38.87377716343292,-77.11641779
22553,Spotsylvania,VA,Spotsylvania,38.265930280114446,-77.63969792
22715,Brightwood,VA,Madison,38.41034387639307,-78.18537125
22802,Harrisonburg,VA,Rockingham,38.50017027714391,-78.85849199
22937,Esmont,VA,Albemarle,37.81298380777793,-78.60891001
23002,Amelia Court House,VA,Amelia,37.34919326099513,-77.96359538
23027,Cartersville,VA,Cumberland,37.64551541082426,-78.13183582
23071,Hartfield,VA,Middlesex,37.54326916867829,-76.45226236
23112,Midlothian,VA,Chesterfield,37.43735668437071,-77.66389634
23176,Wake,VA,Middlesex,37.56932172133999,-76.41985106
23233,Henrico,VA,Henrico,37.64460531644762,-77.62830207
23336,Chincoteague Island,VA,Accomack,37.95461956840526,-75.33754616
23401,Keller,VA,Accomack,37.62775759218372,-75.77835008
23416,Oak Hall,VA,Accomack,37.93372060163559,-75.55698461
20002,Washington,DC,District of Columbia,38.905092522539114,-76.98428974
20607,Accokeek,MD,Prince George's,38.67159986358205,-77.02477269
24738,Nemours,WV,Mercer,37.303215394230115,-81.32010046
20004,Washington,DC,District of Columbia,38.895093322240335,-77.02658381
20612,Benedict,MD,Charles,38.50707409940541,-76.6779755
20618,Bushwood,MD,St Mary's,38.28148558565734,-76.78893328
24740,Princeton,WV,Mercer,37.404225638461625,-81.10202777
20621,Chaptico,MD,St Mary's,38.330618245273016,-76.79414721
20005,Washington,DC,District of Columbia,38.90443800113264,-77.0315974
20006,Washington,DC,District of Columbia,38.898481736739896,-77.04120475
20616,Bryans Road,MD,Charles,38.65443854724203,-77.08849779
19709,Middletown,DE,New Castle,39.48924233268368,-75.68306257
20010,Washington,DC,District of Columbia,38.93250168023389,-77.03131947
20625,Cobb Island,MD,Charles,38.2621613,-76.84878319
20628,Dameron,MD,St Mary's,38.146111866001334,-76.3503636
20632,Faulkner,MD,Charles,38.42592483384118,-76.9568281
24816,Big Sandy,WV,McDowell,37.46124015467824,-81.70496958
20636,Hollywood,MD,St Mary's,38.355808419356556,-76.57209895
20012,Washington,DC,District of Columbia,38.97883299052387,-77.03078517
24828,Davy,WV,McDowell,37.49971470357058,-81.65529971
24854,Kopperston,WV,Wyoming,37.73997682,-81.57890004
19730,Odessa,DE,New Castle,39.45437298271323,-75.66076429
20650,Leonardtown,MD,St Mary's,38.27186799614609,-76.63276136
24879,Raysal,WV,McDowell,37.31640925209224,-81.76723933
24892,War,WV,McDowell,37.316825508211274,-81.69702421
20204,Washington,DC,District of Columbia,38.88555854435649,-77.01442933
24849,Jesse,WV,Wyoming,37.6743483,-81.5584826
21117,Owings Mills,MD,Baltimore,39.427203638504814,-76.77794635
25666,Breeden,WV,Mingo,37.920310286073885,-82.29429232
25670,Delbarton,WV,Mingo,37.73848273918287,-82.15591451
25676,Lenore,WV,Mingo,37.82507682500592,-82.22969852
24851,Justice,WV,Mingo,37.59914257697574,-81.83812401
25646,Stollings,WV,Logan,37.831842938626586,-81.89349197
25649,Verdunville,WV,Logan,37.87161835052865,-82.08482668
25650,Verner,WV,Mingo,37.683570948466524,-81.78773439
25654,Yolyn,WV,Logan,37.80301185028054,-81.87398447
25156,Pinch,WV,Kanawha,38.41180345948137,-81.48219436
25160,Pond Gap,WV,Kanawha,38.29886842945907,-81.27316287
19966,Millsboro,DE,Sussex,38.581191718358085,-75.28272701
25161,Powellton,WV,Fayette,38.06124169994243,-81.3188843
21104,Marriottsville,MD,Howard,39.35042190250741,-76.90656418
25624,Henlawson,WV,Logan,37.90393659184817,-81.97157565
25628,Kistler,WV,Logan,37.76572015504297,-81.86228942
25632,Lyburn,WV,Logan,37.76294436784602,-81.93680583
21113,Odenton,MD,Anne Arundel,39.05446033229301,-76.71515267
25638,Omar,WV,Logan,37.744247865812795,-82.05133359
20716,Bowie,MD,Prince George's,38.927346540933236,-76.714944
25015,Belle,WV,Kanawha,38.24293849748514,-81.49228735
25021,Bim,WV,Boone,37.91588956989805,-81.68484538
25162,Pratt,WV,Kanawha,38.20716015736951,-81.38421802
25165,Racine,WV,Boone,38.14904697750403,-81.65312014
25169,Ridgeview,WV,Boone,38.12782323989675,-81.76292204
25173,Robson,WV,Fayette,38.075172272287396,-81.21895061
20777,Highland,MD,Howard,39.174859381790505,-76.96783675
20794,Jessup,MD,Howard,39.151054681413356,-76.78880887
21912,Warwick,MD,Cecil,39.42486048169886,-75.81600053
25260,Mason,WV,Mason,39.01645220894644,-82.02458148
25262,Millwood,WV,Jackson,38.90750882608456,-81.83220786
20817,Bethesda,MD,Montgomery,38.99808297368972,-77.14921446
20837,Poolesville,MD,Montgomery,39.11219372064616,-77.40820166
20779,Tracys Landing,MD,Anne Arundel,38.76385309678443,-76.57657516
25180,Saxon,WV,Raleigh,37.78963037458598,-81.43316352
25202,Tornado,WV,Kanawha,38.315876290279746,-81.85371653
24873,Paynesville,WV,McDowell,37.357343121737216,-81.87403238
24830,Elbert,WV,McDowell,37.334017195924886,-81.55798219
24831,Elkhorn,WV,McDowell,37.38942788474556,-81.44082447
24834,Fanrock,WV,Wyoming,37.54319993674313,-81.66085348
20015,Washington,DC,District of Columbia,38.96664364230646,-77.05832583
24843,Hensley,WV,McDowell,37.48378471,-81.70922932
19936,Cheswold,DE,Kent,39.218634775709845,-75.58511417
25028,Bob White,WV,Boone,37.95598177988656,-81.72544761
25241,Evans,WV,Jackson,38.78430455,-81.80802288
25265,New Haven,WV,Mason,38.981281591418224,-81.97357179
20833,Brookeville,MD,Montgomery,39.205958437822915,-77.0555508
25174,Rock Creek,WV,Raleigh,37.86114128555936,-81.41375846
20774,Upper Marlboro,MD,Prince George's,38.87589583363717,-76.76923378
24846,Isaban,WV,Mingo,37.526118314011995,-81.89168156
24847,Itmann,WV,Wyoming,37.57343589480852,-81.41445398
24848,Jenkinjones,WV,McDowell,37.282185223673096,-81.43400264
24853,Kimball,WV,McDowell,37.429210985584334,-81.51691017
20017,Washington,DC,District of Columbia,38.938154306521746,-76.9929089
24860,Matheny,WV,Wyoming,37.65924214280888,-81.59079608
25033,Buffalo,WV,Putnam,38.61093631150051,-81.92510999
20776,Harwood,MD,Anne Arundel,38.86912754599602,-76.60664636
20778,West River,MD,Anne Arundel,38.83736146028103,-76.56644262
25177,Saint Albans,WV,Kanawha,38.36924122804155,-81.85017571
25181,Seth,WV,Boone,38.04969249483366,-81.63475996
25183,Sharples,WV,Logan,37.907402744466225,-81.79743858
21009,Abingdon,MD,Harford,39.47017900512233,-76.29252512
25422,Great Cacapon,WV,Morgan,39.55806417742143,-78.35889902
25425,Harpers Ferry,WV,Jefferson,39.276325574887395,-77.7917511
21035,Davidsonville,MD,Anne Arundel,38.93634536145959,-76.638756
24862,Mohawk,WV,McDowell,37.479026666176956,-81.94888664
24867,New Richmond,WV,Wyoming,37.604360785645845,-81.45259523
20019,Washington,DC,District of Columbia,38.89211485153472,-76.94198603
24874,Pineville,WV,Wyoming,37.60199738496023,-81.53070153
24880,Rock View,WV,Wyoming,37.64676139830386,-81.53191853
20722,Brentwood,MD,Prince George's,38.935083044392265,-76.94944063
25035,Cabin Creek,WV,Kanawha,38.16338622248075,-81.52398962
19939,Dagsboro,DE,Sussex,38.565748365172006,-75.20223333
25039,Cedar Grove,WV,Kanawha,38.24639917559646,-81.36532835
20724,Laurel,MD,Anne Arundel,39.08027010799948,-76.79055724
25043,Clay,WV,Clay,38.44093506384703,-80.98983999
25186,Smithers,WV,Fayette,38.171170001422716,-81.29810389
25442,Shenandoah Junction,WV,Jefferson,39.37154987029254,-77.83179507
25444,Slanesville,WV,Hampshire,39.435540101467524,-78.52077103
25502,Apple Grove,WV,Mason,38.66499786031696,-82.11021946
25506,Branchland,WV,Lincoln,38.20825107675868,-82.18666436
21044,Columbia,MD,Howard,39.210487125337266,-76.88356244
21057,Glen Arm,MD,Baltimore,39.451141850370504,-76.50605121
21030,Cockeysville,MD,Baltimore,39.49002426033483,-76.66589546
25501,Alkol,WV,Lincoln,38.16035714086745,-81.95583129
21010,Gunpowder,MD,Harford,39.38977283453844,-76.29895309
24881,Roderfield,WV,McDowell,37.444307366181285,-81.6878968
24882,Simon,WV,Wyoming,37.62771933254375,-81.76624779
20653,Lexington Park,MD,St Mary's,38.227928016863885,-76.43140118
24887,Switchback,WV,McDowell,37.37804112391531,-81.38660187
20020,Washington,DC,District of Columbia,38.86236180037205,-76.97444245
24898,Wyoming,WV,Wyoming,37.58747586,-81.57517441
20024,Washington,DC,District of Columbia,38.87524067945074,-77.02947758
20658,Marbury,MD,Charles,38.569691376300796,-77.15953341
24901,Lewisburg,WV,Greenbrier,37.852949829316024,-80.47598426
25044,Clear Creek,WV,Raleigh,37.91136751303986,-81.32116626
25047,Clothier,WV,Logan,37.92195447944243,-81.76026181
19945,Frankford,DE,Sussex,38.50336612830578,-75.22847989
25193,Sylvester,WV,Boone,38.016778401279254,-81.55092494
20782,Hyattsville,MD,Prince George's,38.96469853,-76.96485057
25201,Tad,WV,Kanawha,38.34895935845883,-81.48644776
25203,Turtle Creek,WV,Boone,38.02123916952044,-81.88162774
20783,Hyattsville,MD,Prince George's,38.99984472,-76.96887879
25411,Berkeley Springs,WV,Morgan,39.55495789402019,-78.22004198
21012,Arnold,MD,Anne Arundel,39.04532302062935,-76.49717905
25413,Bunker Hill,WV,Berkeley,39.31629220370053,-78.05295507
20036,Washington,DC,District of Columbia,38.907033560264296,-77.04167737
20045,Washington,DC,District of Columbia,38.896731457868285,-77.03079778
20052,Washington,DC,District of Columbia,38.898789508759705,-77.04778697
20057,Washington,DC,District of Columbia,38.908971295707175,-77.07517146
25051,Costa,WV,Boone,38.15906392965613,-81.70918443
20736,Owings,MD,Calvert,38.69126476411378,-76.62858474
25057,Deep Water,WV,Fayette,38.10776124929073,-81.2378078
20737,Riverdale,MD,Prince George's,38.96243626227818,-76.91569083
25059,Dixie,WV,Nicholas,38.254231079158416,-81.21520892
25060,Dorothy,WV,Raleigh,37.97060833330208,-81.47296487
25061,Drybranch,WV,Kanawha,38.17509809703781,-81.43341845
25208,Wharton,WV,Boone,37.845795929142895,-81.64283207
25209,Whitesville,WV,Boone,37.96274536771669,-81.52863852
25211,Widen,WV,Clay,38.46106873213712,-80.87936487
20784,Hyattsville,MD,Prince George's,38.95145386206366,-76.89029265
19973,Seaford,DE,Sussex,38.63406948776194,-75.62453316
25213,Winfield,WV,Putnam,38.507778324174446,-81.9179738
25414,Charles Town,WV,Jefferson,39.25272602573583,-77.87053627
20064,Washington,DC,District of Columbia,38.93637152669398,-76.99920973
20230,Washington,DC,District of Columbia,38.89374374893637,-77.0356726
20240,Washington,DC,District of Columbia,38.89445630041632,-77.04260465
20245,Washington,DC,District of Columbia,38.893582992059365,-77.04504012
20317,Washington,DC,District of Columbia,38.936406507843685,-77.01278184
25062,Dry Creek,WV,Raleigh,37.87547841173539,-81.44412516
25063,Duck,WV,Clay,38.57760719112487,-80.92568926
20812,Glen Echo,MD,Montgomery,38.96689267358146,-77.14366741
25245,Given,WV,Jackson,38.699179944073244,-81.73931208
25247,Hartford,WV,Mason,39.0009324,-81.98989388
20427,Washington,DC,District of Columbia,38.902057461462405,-77.04755801
20535,Washington,DC,District of Columbia,38.89513567,-77.02493294
20678,Prince Frederick,MD,Calvert,38.521722931955885,-76.60065263
20688,Solomons,MD,Calvert,38.33478009287366,-76.469657
20707,Laurel,MD,Prince George's,39.09563360769448,-76.88421971
24918,Ballard,WV,Monroe,37.51794033637951,-80.754612
20693,Welcome,MD,Charles,38.45925808253008,-77.08934091
20319,Washington,DC,District of Columbia,38.86694684916719,-77.0169654
20660,Morganza,MD,St Mary's,38.36930013874768,-76.70731014
20742,College Park,MD,Prince George's,38.99418329169784,-76.94344034
19950,Greenwood,DE,Sussex,38.82005557063715,-75.59699721
25064,Dunbar,WV,Kanawha,38.376292670839575,-81.74763561
25070,Eleanor,WV,Putnam,38.546658343770666,-81.93177588
19954,Houston,DE,Kent,38.898899510593715,-75.52092243
25075,Eskdale,WV,Kanawha,38.05255869514787,-81.42912796
19958,Lewes,DE,Sussex,38.72736480044411,-75.16635155
19964,Marydel,DE,Kent,39.09430804202021,-75.7243505
20815,Chevy Chase,MD,Montgomery,38.98365647832293,-77.07852124
19977,Smyrna,DE,Kent,39.296451980393925,-75.55113349
25253,Letart,WV,Mason,38.91946846557382,-81.96685262
25259,Looneyville,WV,Roane,38.67467295852765,-81.24833579
25264,Mount Alto,WV,Jackson,38.85546940001078,-81.89518839
25266,Newton,WV,Roane,38.60224479494722,-81.15889668
25268,Orma,WV,Calhoun,38.73969408539711,-81.10699907
20832,Olney,MD,Montgomery,39.15133859,-77.07332331
25270,Reedy,WV,Roane,38.88172026094012,-81.43396086
20841,Boyds,MD,Montgomery,39.185769716845165,-77.32580178
21036,Dayton,MD,Howard,39.23417842663036,-77.00221705
25428,Inwood,WV,Berkeley,39.37405256044371,-78.02730943
20373,Naval Anacost Annex,DC,District of Columbia,38.85780286883833,-77.01051165
20390,Washington,DC,District of Columbia,38.87901906867056,-76.99369549
20510,Washington,DC,District of Columbia,38.89278014634194,-77.00689003
20520,Washington,DC,District of Columbia,38.89470007749126,-77.04848092
20540,Washington,DC,District of Columbia,38.887929223965024,-77.00471349
20560,Washington,DC,District of Columbia,38.89012565960127,-77.02724488
25133,Maysel,WV,Clay,38.47976206611007,-81.11831299
25143,Nitro,WV,Kanawha,38.42001087064094,-81.82416396
25149,Ottawa,WV,Boone,37.955774584963024,-81.77445428
25152,Page,WV,Fayette,38.04109539862523,-81.24001416
25154,Peytona,WV,Boone,38.11575882787137,-81.70247222
19968,Milton,DE,Sussex,38.77554551208057,-75.2846921
25082,Fraziers Bottom,WV,Putnam,38.60862971978687,-82.02878056
20751,Deale,MD,Anne Arundel,38.795570436214895,-76.56226513
25076,Ethel,WV,Logan,37.86891974072739,-81.93701171
25107,Hernshaw,WV,Kanawha,38.22429729668253,-81.64493374
25110,Hugheston,WV,Kanawha,38.213228440674285,-81.32641089
20747,District Heights,MD,Prince George's,38.85346724,-76.88382897
20769,Glenn Dale,MD,Prince George's,38.98814885697157,-76.8163467
25168,Red House,WV,Putnam,38.563928363791696,-81.87732738
19953,Hartly,DE,Kent,39.15139387197257,-75.69684294
19955,Kenton,DE,Kent,39.22660003068795,-75.66549328
25106,Henderson,WV,Mason,38.776038700984905,-82.08244132
25111,Indore,WV,Clay,38.348392414804486,-81.12588555
20838,Barnesville,MD,Montgomery,39.22338751489331,-77.37217187
20842,Dickerson,MD,Montgomery,39.20823137734033,-77.42492121
25271,Ripley,WV,Jackson,38.7884311,-81.68625051
25285,Wallback,WV,Clay,38.547261891906054,-81.1128892
20855,Derwood,MD,Montgomery,39.13700056567222,-77.13193246
25431,Levels,WV,Hampshire,39.48685991699609,-78.57279919
20565,Washington,DC,District of Columbia,38.890129875444345,-77.01948656
20662,Nanjemoy,MD,Charles,38.433680695675264,-77.1997852
24910,Alderson,WV,Monroe,37.741738077526975,-80.66836208
24915,Arbovale,WV,Pocahontas,38.469295131676766,-79.78667286
20667,Park Hall,MD,St Mary's,38.21782247,-76.44538581
20670,Patuxent River,MD,St Mary's,38.28238842118794,-76.42034907
20675,Pomfret,MD,Charles,38.58348185086107,-77.01523221
24920,Bartow,WV,Pocahontas,38.58919356905783,-79.71723459
20744,Fort Washington,MD,Prince George's,38.75366297546017,-76.98391829
25071,Elkview,WV,Kanawha,38.47728435429058,-81.46751446
25083,Gallagher,WV,Kanawha,38.06818345983669,-81.36120222
25086,Glasgow,WV,Kanawha,38.213333722057676,-81.41267982
25088,Glen,WV,Clay,38.37966879654383,-81.2154845
20868,Spencerville,MD,Montgomery,39.125405506854364,-76.96835735
20871,Clarksburg,MD,Montgomery,39.259196200613246,-77.28190012
20905,Silver Spring,MD,Montgomery,39.11050433,-76.99038943
25403,Martinsburg,WV,Berkeley,39.48415172116831,-78.00728669
20912,Takoma Park,MD,Montgomery,38.98187042478357,-77.00102735
20866,Burtonsville,MD,Montgomery,39.109672989964245,-76.93409509
20878,Gaithersburg,MD,Montgomery,39.11375950980708,-77.24780453
20901,Silver Spring,MD,Montgomery,39.02148219529229,-77.00921318
25275,Sandyville,WV,Jackson,38.92448189922853,-81.61686468
20850,Rockville,MD,Montgomery,39.090800184972785,-77.18091772
20851,Rockville,MD,Montgomery,39.07763757,-77.12089475
25286,Walton,WV,Roane,38.62098750648967,-81.39728987
25432,Millville,WV,Jefferson,39.29544665049629,-77.78680259
25437,Points,WV,Hampshire,39.42251949904502,-78.57621801
25438,Ranson,WV,Jefferson,39.318549694668675,-77.86444831
25443,Shepherdstown,WV,Jefferson,39.43823593243615,-77.81469738
21043,Ellicott City,MD,Howard,39.25758595216353,-76.7977456
24927,Cass,WV,Pocahontas,38.38999436940218,-79.96500789
24931,Crawley,WV,Greenbrier,37.91469505272169,-80.59356754
24934,Dunmore,WV,Pocahontas,38.328366303291034,-79.89265846
20686,Saint Marys City,MD,St. Mary's,38.18540311655297,-76.43896869
25090,Glen Ferris,WV,Fayette,38.15541371,-81.21650072
25102,Handley,WV,Kanawha,38.16734202617857,-81.35190817
20746,Suitland,MD,Prince George's,38.836650987993785,-76.91936723
25108,Hewett,WV,Boone,37.965494437766296,-81.87290912
25109,Hometown,WV,Putnam,38.53090681851782,-81.86052605
25287,West Columbia,WV,Mason,38.96155497266594,-82.04838342
25504,Barboursville,WV,Cabell,38.372981062091995,-82.2667333
25505,Big Creek,WV,Logan,38.01968540038187,-82.03075386
21045,Columbia,MD,Howard,39.206211807941024,-76.82745854
25510,Culloden,WV,Cabell,38.38836504736425,-82.06599093
25512,East Lynn,WV,Wayne,38.1778659,-82.32059292
24946,Hillsboro,WV,Pocahontas,38.17893886619369,-80.26711919
20689,Sunderland,MD,Calvert,38.66962194974192,-76.58594123
24951,Lindside,WV,Monroe,37.48357221679327,-80.63101632
20695,White Plains,MD,Charles,38.58885242148289,-76.97267245
20701,Annapolis Junction,MD,Anne Arundel,39.128753369962695,-76.78794498
24954,Marlinton,WV,Pocahontas,38.22931979202377,-80.07431664
24962,Pence Springs,WV,Summers,37.66031010080747,-80.72036109
25112,Institute,WV,Kanawha,38.381037449490634,-81.76629526
25119,Kincaid,WV,Fayette,38.03361408039269,-81.27492144
25121,Lake,WV,Logan,37.911638320402794,-81.87786354
19962,Magnolia,DE,Kent,39.07006240665622,-75.49753623
20748,Temple Hills,MD,Prince George's,38.81695120091083,-76.94127157
25124,Liberty,WV,Putnam,38.62006038568582,-81.76535794
25301,Charleston,WV,Kanawha,38.351226081570005,-81.62760166
20854,Potomac,MD,Montgomery,39.034090364259875,-77.22144039
25514,Fort Gay,WV,Wayne,38.0813832,-82.51674501
21048,Finksburg,MD,Carroll,39.495707330285924,-76.91055895
25515,Gallipolis Ferry,WV,Mason,38.75726282771201,-82.15263902
25517,Genoa,WV,Wayne,38.10983842527586,-82.45366929
25520,Glenwood,WV,Mason,38.55771066313812,-82.17900794
21052,Fort Howard,MD,Baltimore,39.20454820685022,-76.44053548
21056,Gibson Island,MD,Anne Arundel,39.07819114871554,-76.43384723
21060,Glen Burnie,MD,Anne Arundel,39.16890359784947,-76.58346115
25545,Ona,WV,Cabell,38.45846679209926,-82.22457211
25601,Logan,WV,Logan,37.86261248662941,-82.00259897
25621,Gilbert,WV,Mingo,37.63149575626059,-81.89645545
25630,Lorado,WV,Logan,37.798207663509906,-81.68160119
25651,Wharncliffe,WV,Mingo,37.57141071918715,-81.96621657
25674,Kermit,WV,Mingo,37.87107917429647,-82.34670469
25537,Lesage,WV,Cabell,38.53393474338412,-82.26923129
20706,Lanham,MD,Prince George's,38.96547366779632,-76.85091059
24974,Secondcreek,WV,Monroe,37.653973122621835,-80.44691171
24976,Sinks Grove,WV,Monroe,37.66512414,-80.52277415
24977,Smoot,WV,Greenbrier,37.90825677151465,-80.6752972
24983,Union,WV,Monroe,37.59164082,-80.51673284
19902,Dover Afb,DE,Kent,39.12765639631304,-75.46691268
20861,Ashton,MD,Montgomery,39.14650577956698,-76.99885179
20872,Damascus,MD,Montgomery,39.29142915272092,-77.2162146
20874,Germantown,MD,Montgomery,39.12902160467146,-77.29724436
20876,Germantown,MD,Montgomery,39.20708039944278,-77.23283623
25304,Charleston,WV,Kanawha,38.30522865046199,-81.59043801
25305,Charleston,WV,Kanawha,38.33681918354058,-81.61313921
20877,Gaithersburg,MD,Montgomery,39.14071185971587,-77.18864063
20879,Gaithersburg,MD,Montgomery,39.16992356318191,-77.17400094
20880,Washington Grove,MD,Montgomery,39.14078272007701,-77.17446357
20882,Gaithersburg,MD,Montgomery,39.23182054815648,-77.14518946
20886,Montgomery Village,MD,Montgomery,39.179516410656646,-77.1971471
25311,Charleston,WV,Kanawha,38.36307363315236,-81.55358837
25607,Amherstdale,WV,Logan,37.78125341922612,-81.77078199
25634,Mallory,WV,Logan,37.73014767322653,-81.82468212
25524,Harts,WV,Lincoln,38.013073761029865,-82.1171384
21061,Glen Burnie,MD,Anne Arundel,39.16117779563939,-76.63220811
25678,Matewan,WV,Mingo,37.59555091573137,-82.08202363
24984,Waiteville,WV,Monroe,37.48940140973652,-80.4175145
20708,Laurel,MD,Prince George's,39.04541258,-76.83455755
20710,Bladensburg,MD,Prince George's,38.94199984576506,-76.92624637
20714,North Beach,MD,Calvert,38.71797252304229,-76.53977123
19934,Camden Wyoming,DE,Kent,39.08132637588854,-75.63110673
25036,Cannelton,WV,Fayette,38.19175480518654,-81.26436677
19940,Delmar,DE,Sussex,38.47721113,-75.56823197
20735,Clinton,MD,Prince George's,38.75030782,-76.90566237
19947,Georgetown,DE,Sussex,38.67419486703859,-75.39866358
25067,East Bank,WV,Kanawha,38.20970984970585,-81.44027733
19952,Harrington,DE,Kent,38.91653489652182,-75.62535973
25025,Blount,WV,Kanawha,38.29378863140799,-81.40180406
25053,Danville,WV,Boone,38.04726918059616,-81.87631332
25054,Dawes,WV,Kanawha,38.12229478025074,-81.4504459
20720,Bowie,MD,Prince George's,38.99705659783873,-76.78584453
20758,Friendship,MD,Anne Arundel,38.73400293,-76.58963663
25130,Madison,WV,Boone,38.02773643154875,-81.74546671
20762,Andrews Air Force Base,MD,Prince George's,38.807447732719844,-76.87462757
25139,Mount Carbon,WV,Fayette,38.11034477,-81.28739854
20896,Garrett Park,MD,Montgomery,39.035251830830866,-77.09504418
20899,Gaithersburg,MD,Montgomery,39.14439974448744,-77.21617527
25312,Charleston,WV,Kanawha,38.46158925232813,-81.65600392
25313,Charleston,WV,Kanawha,38.4154756,-81.75701926
20902,Silver Spring,MD,Montgomery,39.043824809664365,-77.0420961
20903,Silver Spring,MD,Montgomery,39.02134064718813,-76.98208521
25320,Charleston,WV,Kanawha,38.54123844897241,-81.62698768
25404,Martinsburg,WV,Berkeley,39.48634278848417,-77.89778249
21001,Aberdeen,MD,Harford,39.51076609033628,-76.20276318
25530,Kenova,WV,Wayne,38.35634315074107,-82.56325939
25535,Lavalette,WV,Wayne,38.30774376966891,-82.43405339
25547,Pecks Mill,WV,Logan,37.92629884955719,-81.95369183
21076,Hanover,MD,Anne Arundel,39.168547140519586,-76.72238494
25555,Prichard,WV,Wayne,38.235360536578824,-82.55918211
25557,Ranger,WV,Lincoln,38.09923571115851,-82.16265146
25022,Blair,WV,Logan,37.84158560930726,-81.79239221
19941,Ellendale,DE,Sussex,38.79490369890206,-75.42476914
20711,Lothian,MD,Anne Arundel,38.80485808233434,-76.65242478
20712,Mount Rainier,MD,Prince George's,38.94300418602114,-76.96511974
19904,Dover,DE,Kent,39.17294393991287,-75.59515531
24986,White Sulphur Springs,WV,Greenbrier,37.91185307656103,-80.1945601
24991,Williamsburg,WV,Greenbrier,38.00701680888872,-80.4897165
25002,Alloy,WV,Fayette,38.130879215837915,-81.25472414
25003,Alum Creek,WV,Lincoln,38.25100441,-81.7792577
20715,Bowie,MD,Prince George's,38.986441012773675,-76.73966056
20764,Shady Side,MD,Anne Arundel,38.83373293279699,-76.51146015
25405,Martinsburg,WV,Berkeley,39.40892218481235,-77.96236049
21077,Harmans,MD,Anne Arundel,39.15836555271701,-76.69953831
25559,Salt Rock,WV,Cabell,38.32752119,-82.23183018
21085,Joppa,MD,Harford,39.44462577336477,-76.35600257
25560,Scott Depot,WV,Putnam,38.44737079258407,-81.89906191
25565,Spurlockville,WV,Lincoln,38.10998831,-81.96627389
21090,Linthicum Heights,MD,Anne Arundel,39.209186927921394,-76.66797277
25570,Wayne,WV,Wayne,38.23507232775167,-82.41929906
25571,West Hamlin,WV,Lincoln,38.29468788334591,-82.15631582
25573,Yawkey,WV,Lincoln,38.227296568803126,-81.94546671
25617,Davin,WV,Logan,37.745514798260075,-81.80270192
25005,Amma,WV,Roane,38.581988551334895,-81.26983033
19931,Bethel,DE,Sussex,38.56929770430677,-75.61045136
25011,Bancroft,WV,Putnam,38.51169895045355,-81.83633636
20765,Galesville,MD,Anne Arundel,38.84534317170029,-76.54653054
25141,Nebo,WV,Clay,38.630499218515226,-81.03593448
25142,Nellis,WV,Boone,38.15003411663949,-81.73062386
25148,Orgas,WV,Boone,38.03510905220601,-81.53693863
21286,Towson,MD,Baltimore,39.41372594064634,-76.5737423
21409,Annapolis,MD,Anne Arundel,39.01966427586944,-76.44743163
26202,Fenwick,WV,Nicholas,38.22659154,-80.62642478
26203,Erbacon,WV,Webster,38.53135822,-80.60148913
26241,Elkins,WV,Randolph,38.916271425398705,-79.79224879
26263,Dryfork,WV,Randolph,38.957045742663404,-79.43582044
26269,Hambleton,WV,Tucker,39.11610190548621,-79.61617225
26266,Upperglade,WV,Webster,38.43406101088638,-80.50212825
21401,Annapolis,MD,Anne Arundel,38.98969317004247,-76.55051634
26205,Craigsville,WV,Nicholas,38.32079452834527,-80.64826089
21239,Baltimore,MD,Baltimore City,39.365163578247866,-76.58709943
21240,Baltimore,MD,Anne Arundel,39.17482760723486,-76.67180162
21856,Quantico,MD,Wicomico,38.3380457,-75.79229433
21866,Tylerton,MD,Somerset,37.96712753299597,-76.02136547
21867,Upper Fairmount,MD,Somerset,38.110275760353346,-75.79397264
25810,Allen Junction,WV,Wyoming,37.58358008,-81.34973452
26170,Saint Marys,WV,Pleasants,39.361358220801414,-81.17139047
21634,Fishing Creek,MD,Dorchester,38.28178893871739,-76.18629619
21635,Galena,MD,Kent,39.34006133661119,-75.83825202
21636,Goldsboro,MD,Caroline,39.026116183825295,-75.79841585
26354,Grafton,WV,Taylor,39.3484721,-80.02865787
26361,Gypsy,WV,Harrison,39.36511762302045,-80.31773939
21640,Henderson,MD,Caroline,39.070318591737234,-75.82538198
21641,Hillsboro,MD,Caroline,38.91704255387933,-75.94177892
21244,Windsor Mill,MD,Baltimore,39.33417960647547,-76.78211799
21250,Baltimore,MD,Baltimore,39.255610540062634,-76.71117929
21251,Baltimore,MD,Baltimore City,39.34992172561947,-76.58023101
21252,Towson,MD,Baltimore,39.39411576,-76.61138267
26178,Smithville,WV,Ritchie,39.06001003083377,-81.02891517
25818,Bradley,WV,Raleigh,37.86065854433989,-81.19256498
25820,Camp Creek,WV,Mercer,37.50811931303215,-81.13547314
25823,Coal City,WV,Raleigh,37.666276734452566,-81.18230616
25825,Cool Ridge,WV,Raleigh,37.6474011,-81.08855079
26366,Haywood,WV,Harrison,39.38265502751088,-80.33478172
26372,Horner,WV,Lewis,38.95858146803244,-80.37156108
21643,Hurlock,MD,Dorchester,38.64420580290574,-75.87124685
21648,Madison,MD,Dorchester,38.49870006727934,-76.23254668
21652,Neavitt,MD,Talbot,38.720377505081814,-76.28152724
26412,Orlando,WV,Lewis,38.89162861142729,-80.59458496
21669,Taylors Island,MD,Dorchester,38.45909455392538,-76.28498749
21675,Wingate,MD,Dorchester,38.29012614586672,-76.08831263
26431,Shinnston,WV,Harrison,39.391456295455775,-80.2808844
21677,Woolford,MD,Dorchester,38.48284010697488,-76.18383481
21679,Wye Mills,MD,Talbot,38.91718714269485,-76.08875912
26456,West Union,WV,Doddridge,39.28080803,-80.77353131
21713,Boonsboro,MD,Washington,39.526187675190656,-77.66927864
26404,Meadowbrook,WV,Harrison,39.346385143985785,-80.30992096
26405,Moatsville,WV,Barbour,39.23094425992394,-79.89077604
26181,Washington,WV,Wood,39.20705855344864,-81.67317793
26187,Williamstown,WV,Wood,39.367103868685724,-81.44892695
21403,Annapolis,MD,Anne Arundel,38.94433185023006,-76.4929729
21405,Annapolis,MD,Anne Arundel,39.029931537122394,-76.54963038
26201,Buckhannon,WV,Upshur,39.00082279680446,-80.20249263
08038,Hancocks Bridge,NJ,Salem,39.47391787508853,-75.48853004
25826,Corinne,WV,Wyoming,37.57284781166712,-81.3657217
25827,Crab Orchard,WV,Raleigh,37.73867329949611,-81.25367031
21163,Woodstock,MD,Howard,39.34025970665935,-76.85703892
25832,Daniels,WV,Raleigh,37.7264336,-81.10489974
25836,Eccles,WV,Raleigh,37.78689087221557,-81.27810009
21201,Baltimore,MD,Baltimore City,39.29496155643515,-76.62234117
25841,Flat Top,WV,Mercer,37.55322886212824,-81.09061495
21645,Kennedyville,MD,Kent,39.31981089407552,-75.96217932
21647,Mcdaniel,MD,Talbot,38.80112769241576,-76.28301335
26378,Jane Lew,WV,Lewis,39.12263703,-80.44766052
21650,Massey,MD,Kent,39.31289211400043,-75.80796876
26385,Lost Creek,WV,Harrison,39.15896334,-80.35174743
21651,Millington,MD,Queen Anne's,39.258226626050444,-75.85802964
21654,Oxford,MD,Talbot,38.68890078849781,-76.125511
26408,Mount Clare,WV,Harrison,39.20312352535707,-80.2897086
21655,Preston,MD,Caroline,38.74599410229793,-75.92104638
21657,Queen Anne,MD,Queen Anne's,38.95340151758979,-75.99035895
26206,Cowen,WV,Webster,38.37000691701479,-80.47855101
26209,Snowshoe,WV,Pocahontas,38.39399215641722,-80.04438161
26215,Cleveland,WV,Upshur,38.719274443013475,-80.37900618
26217,Diana,WV,Webster,38.60836829832096,-80.45896414
26228,Kanawha Head,WV,Upshur,38.754356464037905,-80.37054308
26230,Pickens,WV,Randolph,38.64370745381181,-80.18883959
25849,Glen White,WV,Raleigh,37.731725614379236,-81.27800714
21204,Towson,MD,Baltimore,39.40352866935466,-76.63030396
25854,Hico,WV,Fayette,38.126269003662635,-80.97539126
26411,New Milton,WV,Doddridge,39.18077263681796,-80.70723568
21658,Queenstown,MD,Queen Anne's,38.94293647364728,-76.13710869
26415,Pennsboro,WV,Ritchie,39.29807354,-80.93499748
21660,Ridgely,MD,Caroline,38.95534736389474,-75.88837011
21662,Royal Oak,MD,Talbot,38.713835209871114,-76.20219698
26421,Pullman,WV,Ritchie,39.1841257,-80.91607613
26424,Rosemont,WV,Taylor,39.281142186975906,-80.1726821
21664,Secretary,MD,Dorchester,38.608175062513595,-75.9472991
26425,Rowlesburg,WV,Preston,39.31158683776528,-79.68651743
21668,Sudlersville,MD,Queen Anne's,39.18969190474716,-75.85125597
21776,New Windsor,MD,Carroll,39.51860973126254,-77.10371459
26237,Tallmansville,WV,Upshur,38.84772189015052,-80.15147834
26238,Volga,WV,Barbour,39.101778698670884,-80.1584169
25855,Hilltop,WV,Fayette,37.940492174754056,-81.1530485
25862,Lansing,WV,Fayette,38.084481624035035,-81.05177381
25865,Lester,WV,Raleigh,37.730718447505105,-81.35208758
25868,Lookout,WV,Fayette,38.07171862903866,-80.96459033
25873,Mac Arthur,WV,Raleigh,37.75122982124249,-81.21507687
25875,Mc Graws,WV,Wyoming,37.66911472924041,-81.45956202
25878,Midway,WV,Raleigh,37.713032811364094,-81.22454117
25879,Minden,WV,Fayette,37.98044852607393,-81.10442265
25882,Mullens,WV,Wyoming,37.603626160986956,-81.39889536
25916,Sabine,WV,Wyoming,37.67817618647111,-81.49027835
25917,Scarbro,WV,Fayette,37.97944611026967,-81.25022138
25921,Sophia,WV,Raleigh,37.691831522059964,-81.25876041
25942,Winona,WV,Fayette,38.02691616059928,-80.98837862
25978,Nimitz,WV,Summers,37.62859892342765,-80.94138893
21666,Stevensville,MD,Queen Anne's,38.939566849939084,-76.33270834
26426,Salem,WV,Harrison,39.28757180004379,-80.56313397
21777,Point Of Rocks,MD,Frederick,39.279244372420564,-77.52869681
21538,Kitzmiller,MD,Garrett,39.40132524744763,-79.22109008
26253,Beverly,WV,Randolph,38.80773773748973,-79.85653232
26259,Dailey,WV,Randolph,38.82536808888036,-79.91531966
21218,Baltimore,MD,Baltimore City,39.330402295199264,-76.60229681
25936,Thurmond,WV,Fayette,37.92916133383086,-81.03106176
25951,Hinton,WV,Summers,37.655326249603995,-80.87198451
25985,Sandstone,WV,Summers,37.75747039017749,-80.8303665
25880,Mount Hope,WV,Fayette,37.87671732599507,-81.20096868
21206,Baltimore,MD,Baltimore City,39.33933736458334,-76.53701038
25902,Odd,WV,Raleigh,37.56299062411606,-81.21115618
25904,Pax,WV,Fayette,37.91276222,-81.25213699
25907,Prince,WV,Fayette,37.85929140191565,-81.07200371
21209,Baltimore,MD,Baltimore City,39.372658653162944,-76.66804112
21671,Tilghman,MD,Talbot,38.69650711062431,-76.33562946
21672,Toddville,MD,Dorchester,38.27685688623447,-76.06115287
26601,Sutton,WV,Braxton,38.633059987293244,-80.65672826
26611,Cedarville,WV,Gilmer,38.846364748898914,-80.83335853
26621,Flatwoods,WV,Braxton,38.721856123256366,-80.56057101
26623,Frametown,WV,Braxton,38.65763757718166,-80.87718665
26627,Heaters,WV,Braxton,38.75576763072065,-80.59426681
26261,Richwood,WV,Nicholas,38.18882994903195,-80.50452429
26264,Durbin,WV,Pocahontas,38.58922833536134,-79.82276295
26267,Ellamore,WV,Randolph,38.92553839892187,-80.08071562
26268,Glady,WV,Randolph,38.71453554550967,-79.82279223
21550,Oakland,MD,Garrett,39.39103684769294,-79.39082306
26271,Hendricks,WV,Tucker,39.04899989964537,-79.55191603
26275,Junior,WV,Barbour,38.98310068360367,-79.94578744
26288,Webster Springs,WV,Webster,38.49663615149324,-80.36450846
26292,Thomas,WV,Tucker,39.15248451168202,-79.52915897
26293,Valley Bend,WV,Randolph,38.78235611517914,-79.93651925
26296,Whitmer,WV,Randolph,38.75429427265851,-79.56368321
25913,Ravencliff,WV,Wyoming,37.70782796609669,-81.47297061
25915,Rhodell,WV,Raleigh,37.61573336516882,-81.28695478
21207,Gwynn Oak,MD,Baltimore,39.324158046482054,-76.72021341
25920,Slab Fork,WV,Raleigh,37.68642825848853,-81.33666135
21208,Pikesville,MD,Baltimore,39.384017121894956,-76.72546666
25932,Surveyor,WV,Raleigh,37.75623262,-81.30286532
21210,Baltimore,MD,Baltimore City,39.35869235600664,-76.63516298
21211,Baltimore,MD,Baltimore City,39.32856650978234,-76.63893968
26435,Simpson,WV,Taylor,39.26743407808004,-80.08873411
26436,Smithburg,WV,Doddridge,39.296498081692945,-80.71680141
26438,Spelter,WV,Harrison,39.34317715111946,-80.3163619
21790,Tuscarora,MD,Frederick,39.25904048,-77.49564125
26656,Belva,WV,Nicholas,38.24357442054954,-81.18084616
26662,Canvas,WV,Nicholas,38.25813070593402,-80.76947155
26691,Tioga,WV,Nicholas,38.39786153579217,-80.67212547
21801,Salisbury,MD,Wicomico,38.38105706,-75.64070055
26714,Delray,WV,Hampshire,39.17632090319445,-78.64178247
26731,Lahmansville,WV,Grant,39.15241982041413,-79.06859677
26755,Rio,WV,Hampshire,39.15856928791466,-78.73532014
21821,Deal Island,MD,Somerset,38.16770591354114,-75.90823186
26801,Baker,WV,Hardy,39.05693769619238,-78.7937462
21835,Linkwood,MD,Dorchester,38.53355709,-75.93762398
26804,Circleville,WV,Pendleton,38.63303680820479,-79.54522656
26710,Burlington,WV,Mineral,39.309947854588096,-78.94545855
26743,New Creek,WV,Mineral,39.2887113,-79.07998659
26631,Napier,WV,Braxton,38.79795909687782,-80.56857097
26636,Rosedale,WV,Gilmer,38.733844826600105,-80.96598648
26638,Shock,WV,Gilmer,38.77266093701498,-80.99881227
21791,Union Bridge,MD,Frederick,39.542671953913754,-77.18711301
08302,Bridgeton,NJ,Cumberland,39.43972474681165,-75.26159101
26320,Alma,WV,Tyler,39.415159268703306,-80.82614022
26330,Bridgeport,WV,Harrison,39.288370560830046,-80.2210952
26338,Camden,WV,Lewis,39.08503639149043,-80.61941099
21629,Denton,MD,Caroline,38.86110446063149,-75.8275821
26362,Harrisville,WV,Ritchie,39.154562867448114,-81.05703608
26369,Hepzibah,WV,Harrison,39.335246110743064,-80.33118363
26291,Slatyfork,WV,Pocahontas,38.441090696350216,-80.08628974
26276,Kerens,WV,Randolph,39.032012197157485,-79.75656979
21557,Rawlings,MD,Allegany,39.51914371012831,-78.92351755
26278,Mabie,WV,Randolph,38.82571564743795,-80.02547563
26280,Mill Creek,WV,Randolph,38.71734930549279,-80.03778301
26282,Monterville,WV,Randolph,38.52019512,-80.14618799
21561,Swanton,MD,Garrett,39.49975757840496,-79.20482732
26283,Montrose,WV,Tucker,39.06432288463498,-79.82090405
26285,Norton,WV,Randolph,38.910181384234896,-79.94944959
21562,Westernport,MD,Allegany,39.50325572326803,-79.05048289
25962,Rainelle,WV,Greenbrier,37.97044887158569,-80.80979079
25971,Lerona,WV,Mercer,37.48002810712144,-80.97822325
26440,Thornton,WV,Taylor,39.32949729595011,-79.90624333
21678,Worton,MD,Kent,39.30897805322513,-76.10328909
26443,Troy,WV,Gilmer,39.06814640054807,-80.75540062
26444,Tunnelton,WV,Preston,39.368606452302004,-79.76264254
26447,Walkersville,WV,Lewis,38.90544924312307,-80.48540305
26448,Wallace,WV,Harrison,39.40595577620859,-80.49267036
26451,West Milford,WV,Harrison,39.20440647,-80.4034274
08311,Cedarville,NJ,Cumberland,39.326866576943196,-75.20802262
21793,Walkersville,MD,Frederick,39.48961711060291,-77.34357167
21794,West Friendship,MD,Howard,39.297039245061384,-76.97390007
26651,Summersville,WV,Nicholas,38.318497819291856,-80.87901326
26660,Calvin,WV,Nicholas,38.35511283891759,-80.70062449
26676,Leivasy,WV,Nicholas,38.16175464279928,-80.65944349
21797,Woodbine,MD,Howard,39.33281702601272,-77.07000723
26684,Pool,WV,Nicholas,38.16325120518529,-80.85421199
26690,Swiss,WV,Nicholas,38.217572117455056,-81.12064738
26298,Bergoo,WV,Webster,38.45052901029898,-80.26552304
21607,Barclay,MD,Queen Anne's,39.133989697539555,-75.85643933
21610,Betterton,MD,Kent,39.36497328,-76.06871889
25977,Meadow Creek,WV,Summers,37.80813528991952,-80.90564178
21213,Baltimore,MD,Baltimore City,39.31503890503957,-76.57723062
25981,Quinwood,WV,Greenbrier,38.08319682184782,-80.70267591
25984,Rupert,WV,Greenbrier,38.01408273598509,-80.60257712
21215,Baltimore,MD,Baltimore City,39.345748182084655,-76.68366845
21701,Frederick,MD,Frederick,39.44728166620719,-77.33509607
21704,Frederick,MD,Frederick,39.35062542863204,-77.37349696
21705,Frederick,MD,Frederick,39.40886000795014,-77.41000751
21714,Braddock Heights,MD,Frederick,39.41059127824776,-77.51005012
21716,Brunswick,MD,Frederick,39.318019665106114,-77.62617769
21717,Buckeystown,MD,Frederick,39.33862734567426,-77.43152716
21617,Centreville,MD,Queen Anne's,39.04984036578132,-76.03822977
21619,Chester,MD,Queen Anne's,38.952831205313714,-76.27938674
26323,Anmoore,WV,Harrison,39.262277334528896,-80.2905518
21219,Sparrows Point,MD,Baltimore,39.23138444065321,-76.44433692
21222,Dundalk,MD,Baltimore,39.26432681682767,-76.49515078
26148,Macfarlan,WV,Ritchie,39.07122100602572,-81.18090218
21718,Burkittsville,MD,Frederick,39.39337730427888,-77.62737043
21723,Cooksville,MD,Howard,39.32818198655497,-77.01056605
21774,New Market,MD,Frederick,39.40879190952187,-77.27842137
26610,Birch River,WV,Nicholas,38.47769681357609,-80.71887451
26624,Gassaway,WV,Braxton,38.720704907014245,-80.80883517
26629,Little Birch,WV,Braxton,38.56845783106771,-80.70154446
21737,Glenelg,MD,Howard,39.25429589903073,-77.0196567
26704,Augusta,WV,Hampshire,39.28621028720052,-78.59470553
26705,Aurora,WV,Preston,39.32386290173685,-79.5666096
26711,Capon Bridge,WV,Hampshire,39.30297472871773,-78.47076381
26716,Eglon,WV,Preston,39.26410964325904,-79.51893442
26717,Elk Garden,WV,Mineral,39.34583167943775,-79.17601867
26719,Fort Ashby,WV,Mineral,39.49779657,-78.767764
26726,Keyser,WV,Mineral,39.405021935988835,-78.98225637
26335,Burnsville,WV,Braxton,38.85362156901309,-80.67685108
21626,Crapo,MD,Dorchester,38.33924612008062,-76.0838089
21627,Crocheron,MD,Dorchester,38.23505249692781,-76.0498002
21628,Crumpton,MD,Queen Anne's,39.23572215684979,-75.92240401
26337,Cairo,WV,Ritchie,39.23855789453685,-81.16385822
26339,Center Point,WV,Doddridge,39.42229868044229,-80.6099928
26346,Ellenboro,WV,Ritchie,39.29254256596756,-81.062913
26347,Flemington,WV,Taylor,39.26371070236869,-80.1261077
26348,Folsom,WV,Wetzel,39.460348985977745,-80.53472944
26351,Glenville,WV,Gilmer,38.92844370498501,-80.84475276
26149,Middlebourne,WV,Tyler,39.47427477104181,-80.88266631
26147,Grantsville,WV,Calhoun,38.91368612,-81.07628969
21810,Allen,MD,Somerset,38.29001410993848,-75.68895094
26750,Piedmont,WV,Mineral,39.47708179829678,-79.04544835
25653,Wilkinson,WV,Logan,37.82865544424409,-81.9944549
25688,North Matewan,WV,Mingo,37.639548764798406,-82.15820836
21122,Pasadena,MD,Anne Arundel,39.11629144817759,-76.49937905
25702,Huntington,WV,Cabell,38.43824177299972,-82.33353042
25831,Danese,WV,Fayette,37.95645940280665,-80.94035263
25837,Edmond,WV,Fayette,38.06040296355346,-81.03832086
25846,Glen Jean,WV,Fayette,37.92474032058575,-81.166168
25857,Josephine,WV,Raleigh,37.614412974074234,-81.23285534
25870,Maben,WV,Wyoming,37.63929158067262,-81.38127175
21221,Essex,MD,Baltimore,39.29462455537009,-76.44037291
26508,Morgantown,WV,Monongalia,39.59940714528279,-79.89726188
21738,Glenwood,MD,Howard,39.279721426158716,-77.02556698
26519,Albright,WV,Preston,39.55180383655361,-79.63213632
08345,Newport,NJ,Cumberland,39.28822069746319,-75.14656192
21811,Berlin,MD,Worcester,38.31976439665998,-75.22024375
26757,Romney,WV,Hampshire,39.31651794699413,-78.75001929
25690,Ragland,WV,Mingo,37.691250603533376,-82.15502324
25692,Red Jacket,WV,Mingo,37.61804097928448,-82.07376046
25696,Varney,WV,Mingo,37.661156609621216,-82.07152414
25699,Wilsondale,WV,Wayne,37.96295205930054,-82.31481117
21128,Perry Hall,MD,Baltimore,39.405306593219144,-76.44629705
21130,Perryman,MD,Harford,39.47476997083049,-76.18939474
21131,Phoenix,MD,Baltimore,39.503396027128005,-76.57487934
25701,Huntington,WV,Cabell,38.36808619546177,-82.4112172
21133,Randallstown,MD,Baltimore,39.37703645922213,-76.81175079
25811,Amigo,WV,Wyoming,37.60837002277553,-81.30648824
25817,Bolt,WV,Raleigh,37.763975966101455,-81.4219259
21223,Baltimore,MD,Baltimore City,39.28425268579992,-76.65320754
26101,Parkersburg,WV,Wood,39.23394524454075,-81.57482076
26104,Parkersburg,WV,Wood,39.27415458096753,-81.47774542
21226,Curtis Bay,MD,Baltimore City,39.207763645183604,-76.56268843
26105,Vienna,WV,Wood,39.329455755500845,-81.52266738
26133,Belleville,WV,Wood,39.11973833928843,-81.66968315
08353,Shiloh,NJ,Cumberland,39.459548799133216,-75.29696248
26763,Springfield,WV,Hampshire,39.478951691891304,-78.69316051
21817,Crisfield,MD,Somerset,37.98086291608355,-75.83539115
21822,Eden,MD,Somerset,38.28128871082396,-75.65564972
21824,Ewell,MD,Somerset,37.98286671818355,-76.03457199
21826,Fruitland,MD,Wicomico,38.32076124066823,-75.62355186
21830,Hebron,MD,Wicomico,38.40201954446295,-75.72839639
26807,Franklin,WV,Pendleton,38.62894919569192,-79.36155432
21837,Mardela Springs,MD,Wicomico,38.459432634061194,-75.76728473
21841,Newark,MD,Worcester,38.243856681111836,-75.29587385
26818,Fisher,WV,Hardy,39.07662111757439,-79.02238438
26833,Maysville,WV,Grant,39.08117969888461,-79.2083191
26836,Moorefield,WV,Hardy,39.00689542,-78.96366337
21863,Snow Hill,MD,Worcester,38.191670759824405,-75.40325976
21919,Earleville,MD,Cecil,39.42030178279123,-75.93349155
25703,Huntington,WV,Cabell,38.422076272352534,-82.41820613
21136,Reisterstown,MD,Baltimore,39.48848441977893,-76.8088972
21227,Halethorpe,MD,Baltimore,39.24022476996277,-76.67910943
26141,Creston,WV,Wirt,38.929271452722695,-81.26059883
26142,Davisville,WV,Wood,39.21484867933502,-81.45433535
21228,Catonsville,MD,Baltimore,39.27271479473054,-76.74692639
21229,Baltimore,MD,Baltimore City,39.28512624,-76.69080332
26151,Mount Zion,WV,Calhoun,38.894957640914285,-81.17501062
21230,Baltimore,MD,Baltimore City,39.266530731873836,-76.62214348
21755,Jefferson,MD,Frederick,39.36104130558368,-77.5688327
21756,Keedysville,MD,Washington,39.45757853,-77.70118128
21861,Sharptown,MD,Wicomico,38.53529856561249,-75.72828546
21865,Tyaskin,MD,Wicomico,38.28606858,-75.83299236
21874,Willards,MD,Wicomico,38.392673811704014,-75.35415274
26810,Lost City,WV,Hardy,38.97724070621568,-78.74851915
26812,Mathias,WV,Hardy,38.88183439250223,-78.87685825
21838,Marion Station,MD,Somerset,38.01451013324429,-75.73090639
21840,Nanticoke,MD,Wicomico,38.25814286510649,-75.89274649
26814,Riverton,WV,Pendleton,38.75176385255869,-79.46644427
21864,Stockton,MD,Worcester,38.043593344477046,-75.40524538
21140,Riva,MD,Anne Arundel,38.950626129088185,-76.58570202
21144,Severn,MD,Anne Arundel,39.12057308596407,-76.67762382
21231,Baltimore,MD,Baltimore City,39.287752026681694,-76.59197419
26160,Palestine,WV,Wirt,38.98066921029396,-81.41369812
21234,Parkville,MD,Baltimore,39.395003409092375,-76.53250037
26164,Ravenswood,WV,Jackson,38.99059576083755,-81.71948035
26167,Reader,WV,Wetzel,39.53456316048505,-80.71427294
26554,Fairmont,WV,Marion,39.46473293222693,-80.1146105
21769,Middletown,MD,Frederick,39.445787190565994,-77.56490504
21770,Monrovia,MD,Frederick,39.35247364106607,-77.25796025
26571,Farmington,WV,Marion,39.51953601,-80.26009528
26815,Sugar Grove,WV,Pendleton,38.48920938,-79.35885138
26817,Bloomery,WV,Hampshire,39.35959297808929,-78.39069738
26823,Capon Springs,WV,Hampshire,39.130418389595434,-78.5113779
21850,Pittsville,MD,Wicomico,38.36171962334306,-75.39868723
26851,Wardensville,WV,Hardy,39.04799135888309,-78.62875501
26852,Purgitsville,WV,Hampshire,39.24773956338909,-78.91597762
21851,Pocomoke City,MD,Worcester,38.07829025402056,-75.54373057
25639,Peach Creek,WV,Logan,37.88671559050619,-81.9590976
21871,Westover,MD,Somerset,38.10493802820321,-75.73086327
21890,Westover,MD,Somerset,38.15675263845473,-75.69982479
21913,Cecilton,MD,Cecil,39.40971773708242,-75.87069938
21915,Chesapeake City,MD,Cecil,39.50097857025894,-75.84753166
21930,Georgetown,MD,Cecil,39.37177912453546,-75.88979718
40387,Wellington,KY,Menifee,37.93495283093695,-83.49023623
40371,Salt Lick,KY,Bath,38.07720063058218,-83.59557032
40358,Olympia,KY,Bath,38.05766910406354,-83.68308322
40914,Big Creek,KY,Clay,37.09319089216121,-83.56152966
41121,Argillite,KY,Greenup,38.44915325963693,-82.83033933
40806,Baxter,KY,Harlan,36.88593939265421,-83.28814466
40807,Benham,KY,Harlan,36.96460640613746,-82.95581097
40813,Calvin,KY,Bell,36.71530448,-83.59838819
40935,Flat Lick,KY,Knox,36.91112568900106,-83.71264758
40939,Fourmile,KY,Bell,36.81214794163518,-83.71156649
40815,Cawood,KY,Harlan,36.78758276580042,-83.22875777
40820,Cranks,KY,Harlan,36.775544316560165,-83.16511569
41041,Flemingsburg,KY,Fleming,38.40551469,-83.72334303
40958,Kettle Island,KY,Bell,36.80878379774214,-83.58776073
40962,Manchester,KY,Clay,37.14911516935212,-83.74922278
40964,Mary Alice,KY,Harlan,36.78266646497957,-83.33763466
40824,Dayhoit,KY,Harlan,36.82491831268111,-83.37225923
40826,Eolia,KY,Letcher,37.05642885536881,-82.77824144
40997,Walker,KY,Knox,36.88349236588277,-83.67707334
40828,Evarts,KY,Harlan,36.871083515438045,-83.14866356
40829,Grays Knob,KY,Harlan,36.79797284104281,-83.29654642
40965,Middlesboro,KY,Bell,36.624701808916264,-83.73456337
40972,Oneida,KY,Clay,37.24499391523306,-83.60692817
40830,Gulston,KY,Harlan,36.776439728741074,-83.33139752
40840,Helton,KY,Leslie,36.94570191730768,-83.41855236
41056,Maysville,KY,Mason,38.59912734689838,-83.77576717
40977,Pineville,KY,Bell,36.72331248043343,-83.72867706
40979,Roark,KY,Leslie,37.00488493257727,-83.49503088
40988,Stoney Fork,KY,Bell,36.85927345992539,-83.52837512
40847,Kenvir,KY,Harlan,36.852434886700166,-83.1570597
40849,Lejunior,KY,Harlan,36.89943025972852,-83.13456846
40854,Loyall,KY,Harlan,36.84663366133755,-83.35639695
40913,Beverly,KY,Bell,36.94983418345435,-83.54368695
40862,Partridge,KY,Letcher,37.01425074117172,-82.87097268
40855,Lynch,KY,Harlan,36.949350555017006,-82.89840438
40858,Mozelle,KY,Leslie,37.015905699137676,-83.40108083
40863,Pathfork,KY,Harlan,36.74050683569045,-83.44570168
40865,Putney,KY,Harlan,36.916402617208334,-83.21789293
40870,Totz,KY,Perry,36.932119205666346,-83.14856986
40873,Wallins Creek,KY,Harlan,36.81536418922045,-83.40413545
40818,Coalgood,KY,Harlan,36.820050802552274,-83.2441148
40827,Essie,KY,Leslie,37.05207100637139,-83.47193152
40808,Big Laurel,KY,Harlan,36.999498175493635,-83.28008719
40831,Harlan,KY,Harlan,36.76463540371477,-83.33449373
40843,Holmes Mill,KY,Harlan,36.888268611366094,-82.93650426
40801,Ages Brookside,KY,Harlan,36.85700798096122,-83.25492436
41254,River,KY,Johnson,37.88452323182815,-82.72716004
41548,Mouthcard,KY,Pike,37.378481323044824,-82.25369475
41571,Varney,KY,Pike,37.62652834105343,-82.44435443
41602,Auxier,KY,Floyd,37.73869529173442,-82.75243585
41522,Elkhorn City,KY,Pike,37.316477996301735,-82.40090521
41524,Fedscreek,KY,Pike,37.433427818666864,-82.23444467
41526,Fords Branch,KY,Pike,37.43370679,-82.5125661
41725,Carrie,KY,Knott,37.31668126407816,-83.03242835
41255,Sitka,KY,Johnson,37.91021242423791,-82.83766346
41256,Staffordsville,KY,Johnson,37.82446701821767,-82.88138604
41527,Forest Hills,KY,Pike,37.63183413867006,-82.29381198
41528,Freeburn,KY,Pike,37.554539294990896,-82.13985603
41093,Wallingford,KY,Fleming,38.394388861072244,-83.56268016
41146,Hitchins,KY,Carter,38.27697910291851,-82.88961466
41149,Isonville,KY,Elliott,38.06010946304958,-83.05435291
41159,Martha,KY,Lawrence,38.01306840454102,-82.96992345
41260,Thelma,KY,Johnson,37.82250156006393,-82.75129949
41263,Tutor Key,KY,Johnson,37.85713214386078,-82.7626142
41265,Van Lear,KY,Johnson,37.75424788208923,-82.70449262
41267,Warfield,KY,Martin,37.875124807035654,-82.43590385
41531,Hardy,KY,Pike,37.59506889217794,-82.23132313
41535,Huddy,KY,Pike,37.59369153383197,-82.28423536
41164,Olive Hill,KY,Carter,38.28914143557942,-83.1623249
41537,Jenkins,KY,Letcher,37.22217493515345,-82.61621085
41547,Majestic,KY,Pike,37.53812033256678,-82.0945435
41171,Sandy Hook,KY,Elliott,38.093359556015194,-83.08900972
41538,Jonancy,KY,Pike,37.303386105492564,-82.58891719
41543,Mc Andrews,KY,Pike,37.54834463783458,-82.28226164
41314,Booneville,KY,Owsley,37.44009933,-83.63745342
41555,Pinsonfork,KY,Pike,37.538127871862415,-82.25891872
41558,Ransom,KY,Pike,37.53951696065919,-82.20819573
41564,Sidney,KY,Pike,37.60477972105277,-82.36674565
41568,Stopover,KY,Pike,37.50372254668793,-82.05879122
41101,Ashland,KY,Boyd,38.473880670392916,-82.65044134
41332,Hazel Green,KY,Wolfe,37.80029374864618,-83.37576489
41366,Rousseau,KY,Breathitt,37.62471909861468,-83.21962199
41397,Zoe,KY,Lee,37.66676464914998,-83.67704384
41348,Lost Creek,KY,Breathitt,37.425769036126994,-83.31386773
41367,Rowdy,KY,Perry,37.404492254053615,-83.2321725
41559,Regina,KY,Pike,37.38001990907704,-82.39015526
41204,Boons Camp,KY,Johnson,37.81782991150655,-82.68431056
41219,Flatgap,KY,Johnson,37.92586371679943,-82.90886403
41232,Lowmansville,KY,Lawrence,37.93601779349231,-82.74008818
41339,Jackson,KY,Breathitt,37.531576750941795,-83.29229016
41352,Mize,KY,Morgan,37.823586563895326,-83.33513983
41360,Pine Ridge,KY,Wolfe,37.78889544535715,-83.62639603
41385,Vancleve,KY,Breathitt,37.649982448749796,-83.33670147
41408,Cannel City,KY,Morgan,37.79507894,-83.28828195
41421,Elkfork,KY,Morgan,37.99028434517476,-83.17394492
41464,Royalton,KY,Magoffin,37.65973614671585,-82.971941
41567,Stone,KY,Pike,37.56893200826645,-82.28622019
41604,Beaver,KY,Floyd,37.38988145050488,-82.6678142
41605,Betsy Layne,KY,Floyd,37.55498452505776,-82.63020077
41607,Blue River,KY,Floyd,37.62217439,-82.84374527
41615,Dana,KY,Floyd,37.542065218373025,-82.68337855
41175,South Shore,KY,Greenup,38.64575519133023,-82.97794899
41612,Bypro,KY,Floyd,37.35452884246721,-82.72219416
41621,Dwale,KY,Floyd,37.626886210635874,-82.72664655
41632,Gunlock,KY,Magoffin,37.550301236358905,-82.9497976
