ZIP,PRIMECITY,STATEABV,COUNTY,LAT,LONG
"20007",Washington,DC,District of Columbia,"38.912620383779604","-77.0774167197065"
"20016",Washington,DC,District of Columbia,"38.938223112902726","-77.0914358961103"
"20260",Washington,DC,District of Columbia,"38.883543774657014","-77.02503243869023"
"20018",Washington,DC,District of Columbia,"38.925937088683874","-76.97280417417264"
"20418",Washington,DC,District of Columbia,"38.89280038675311","-77.04776441214264"
"20003",Washington,DC,District of Columbia,"38.88188071712143","-76.99037198968969"
"20011",Washington,DC,District of Columbia,"38.95294828664332","-77.02316283895276"
"20001",Washington,DC,District of Columbia,"38.91001880720171","-77.01801334328394"
"20431",Washington,DC,District of Columbia,"38.89894957393686","-77.04418588402885"
"20009",Washington,DC,District of Columbia,"38.91985497000977","-77.03754539530077"
"20008",Washington,DC,District of Columbia,"38.93535995205025","-77.05940359613034"
"20032",Washington,DC,District of Columbia,"38.83132348385009","-77.01529984875711"
"20037",Washington,DC,District of Columbia,"38.8923581779676","-77.05375985422953"
"20551",Washington,DC,District of Columbia,"38.8928020964607","-77.04579990737652"
"20566",Washington,DC,District of Columbia,"38.89668668353834","-77.05550116665877"
"19979",Viola,DE,Kent,"39.05036791860872","-75.57646253554638"
"19960",Lincoln,DE,Sussex,"38.850841783886075","-75.41359857432293"
"19734",Townsend,DE,New Castle,"39.38377007652485","-75.65020541416031"
"19933",Bridgeville,DE,Sussex,"38.73700606052808","-75.60589150116458"
"19956",Laurel,DE,Sussex,"38.54649899583861","-75.53957582036539"
"19943",Felton,DE,Kent,"39.00564515002934","-75.60758172604707"
"19963",Milford,DE,Sussex,"38.93348594590725","-75.37800569755296"
"19951",Harbeson,DE,Sussex,"38.68767427350388","-75.25127618294809"
"19938",Clayton,DE,Kent,"39.25647690745135","-75.698821064161"
"19946",Frederica,DE,Kent,"39.03228018986677","-75.45294564633352"
"19975",Selbyville,DE,Sussex,"38.46862758572992","-75.1746115835898"
"19901",Dover,DE,Kent,"39.173582879047096","-75.47719631040935"
"20601",Waldorf,MD,Charles,"38.618629571961684","-76.85715200678116"
"20602",Waldorf,MD,Charles,"38.58334758067754","-76.89467607567633"
"20603",Waldorf,MD,Charles,"38.62972643621122","-76.97476863534385"
"20609",Avenue,MD,St Mary's,"38.27191270434538","-76.74621369652421"
"20629",Dowell,MD,Calvert,"38.33995203784764","-76.45394489763426"
"20676",Port Republic,MD,Calvert,"38.48688927057079","-76.54792677096616"
"20733",Churchton,MD,Anne Arundel,"38.80624849288922","-76.53138042543608"
"20759",Fulton,MD,Howard,"39.154162103419445","-76.92872958745275"
"20770",Greenbelt,MD,Prince George's,"38.99982931900721","-76.88569966393207"
"20906",Silver Spring,MD,Montgomery,"39.088587588401566","-77.05522969530513"
"21042",Ellicott City,MD,Howard,"39.27105226804442","-76.89241173733271"
"21087",Kingsville,MD,Baltimore,"39.44727662599823","-76.41576343373765"
"21114",Crofton,MD,Anne Arundel,"39.00968857761848","-76.68385863504673"
"21162",White Marsh,MD,Baltimore,"39.39086566271454","-76.40163733964697"
"21217",Baltimore,MD,Baltimore City,"39.307039796545666","-76.63832784250592"
"21220",Middle River,MD,Baltimore,"39.34507689592614","-76.39710376289479"
"21612",Bozman,MD,Talbot,"38.74933183201764","-76.2768941064836"
"21624",Claiborne,MD,Talbot,"38.83385168023915","-76.27224921537137"
"21644",Ingleside,MD,Queen Anne's,"39.11724031926788","-75.8743935656466"
"21659",Rhodesdale,MD,Dorchester,"38.574442240820645","-75.79987707165368"
"21661",Rock Hall,MD,Kent,"39.12897748024911","-76.21965067354381"
"21782",Sharpsburg,MD,Washington,"39.45534900762351","-77.76006864442223"
"21814",Bivalve,MD,Wicomico,"38.291757916128745","-75.88672849663193"
"21875",Delmar,MD,Wicomico,"38.440423072695154","-75.54571860771243"
"20617",Bryantown,MD,Charles,"38.543488428964714","-76.85400973481538"
"20619",California,MD,St Mary's,"38.29189571248712","-76.52709171317717"
"20634",Great Mills,MD,St Mary's,"38.24582028839782","-76.49409551166495"
"20740",College Park,MD,Prince George's,"39.00188528405975","-76.93097208576212"
"20781",Hyattsville,MD,Prince George's,"38.942264142342495","-76.93654447435877"
"21029",Clarksville,MD,Howard,"39.206317788789526","-76.95208327821894"
"21037",Edgewater,MD,Anne Arundel,"38.91477730063261","-76.5436260545871"
"21046",Columbia,MD,Howard,"39.17359443260486","-76.84183659882319"
"21082",Hydes,MD,Baltimore,"39.48286135448588","-76.46740599201573"
"21156",Upper Falls,MD,Baltimore,"39.43752699807465","-76.39696881156463"
"21237",Rosedale,MD,Baltimore,"39.33936442762436","-76.49458152952676"
"21601",Easton,MD,Talbot,"38.79353644844779","-76.08341797772758"
"21620",Chestertown,MD,Kent,"39.20666226577762","-76.0874527663984"
"21703",Frederick,MD,Frederick,"39.36959909262963","-77.47085417545793"
"20608",Aquasco,MD,Prince George's,"38.58638898950369","-76.70701592649851"
"20626",Coltons Point,MD,St Mary's,"38.232685767880525","-76.76428327464706"
"20637",Hughesville,MD,Charles,"38.52577175475973","-76.7789630159357"
"20685",Saint Leonard,MD,Calvert,"38.43464284913441","-76.52908106620606"
"20723",Laurel,MD,Howard,"39.13667540744549","-76.86647900614881"
"20732",Chesapeake Beach,MD,Calvert,"38.65576373039528","-76.54299753699294"
"20818",Cabin John,MD,Montgomery,"38.97318373657249","-77.16187149857528"
"21017",Belcamp,MD,Harford,"39.47597630352673","-76.23672154963769"
"21212",Baltimore,MD,Baltimore City,"39.36782886801282","-76.61458874669852"
"21225",Brooklyn,MD,Anne Arundel,"39.225967030045155","-76.61509283540461"
"21631",East New Market,MD,Dorchester,"38.587839549256515","-75.94600994882859"
"21639",Greensboro,MD,Caroline,"38.965343342606346","-75.79283695765132"
"21665",Sherwood,MD,Talbot,"38.752485050898635","-76.34396566784088"
"21702",Frederick,MD,Frederick,"39.48017796429028","-77.45778860718221"
"21784",Sykesville,MD,Carroll,"39.40089321064157","-76.97258490157616"
"21813",Bishopville,MD,Worcester,"38.42659097840978","-75.17296805589812"
"21853",Princess Anne,MD,Somerset,"38.20446027046024","-75.71045115464642"
"21869",Vienna,MD,Dorchester,"38.43267767977216","-75.89000113459767"
"20611",Bel Alton,MD,Charles,"38.46251023643727","-76.98535890481241"
"20639",Huntingtown,MD,Calvert,"38.60822526893398","-76.60864825504933"
"20646",La Plata,MD,Charles,"38.5211406731309","-76.99988168522692"
"20659",Mechanicsville,MD,St Mary's,"38.418793354439494","-76.73245929578066"
"20674",Piney Point,MD,St Mary's,"38.133407577517225","-76.5006312872784"
"20684",Saint Inigoes,MD,St Mary's,"38.14322412855729","-76.41026097954799"
"20755",Fort George G Meade,MD,Anne Arundel,"39.098907397407665","-76.74477273622176"
"20785",Hyattsville,MD,Prince George's,"38.91849144040405","-76.88233130072847"
"20862",Brinklow,MD,Montgomery,"39.18032086237839","-77.01879895282512"
"21040",Edgewood,MD,Harford,"39.43022525316719","-76.29008844694808"
"21054",Gambrills,MD,Anne Arundel,"39.02619413326644","-76.67082449955191"
"21216",Baltimore,MD,Baltimore City,"39.31082051076663","-76.67145823219852"
"21625",Cordova,MD,Talbot,"38.86926081678475","-75.99218438799896"
"21663",Saint Michaels,MD,Talbot,"38.78357489401523","-76.23330695146443"
"21676",Wittman,MD,Talbot,"38.786267102023295","-76.30525070123755"
"20606",Abell,MD,St Mary's,"38.25423997131471","-76.73872085438957"
"20623",Cheltenham,MD,Prince George's,"38.74228384044923","-76.83743055121563"
"20640",Indian Head,MD,Charles,"38.55411666444182","-77.16558005702976"
"20645",Issue,MD,Charles,"38.298235562968706","-76.91380029911994"
"20677",Port Tobacco,MD,Charles,"38.49993213151621","-77.04017996753194"
"20721",Bowie,MD,Prince George's,"38.92105612607737","-76.78879502795373"
"20772",Upper Marlboro,MD,Prince George's,"38.778490902715156","-76.76912399813556"
"20816",Bethesda,MD,Montgomery,"38.95626020871751","-77.11864094974463"
"20853",Rockville,MD,Montgomery,"39.10234137168467","-77.09463990558314"
"21005",Aberdeen Proving Ground,MD,Harford,"39.440387024022705","-76.16769968179082"
"21032",Crownsville,MD,Anne Arundel,"39.033770580379","-76.60399690401215"
"21075",Elkridge,MD,Howard,"39.204163278264105","-76.75300812994806"
"21153",Stevenson,MD,Baltimore,"39.416490070565835","-76.70702394261691"
"21214",Baltimore,MD,Baltimore City,"39.35214401385318","-76.56433100785607"
"21613",Cambridge,MD,Dorchester,"38.49535632936773","-76.07160880631396"
"21771",Mount Airy,MD,Carroll,"39.395507407068955","-77.1586772358595"
"21849",Parsonsburg,MD,Wicomico,"38.37010482795483","-75.46063975717395"
"20613",Brandywine,MD,Prince George's,"38.67179202312853","-76.80575650058431"
"20615",Broomes Island,MD,Calvert,"38.420449783479064","-76.54773241502663"
"20657",Lusby,MD,Calvert,"38.383636236471176","-76.44537376366115"
"20705",Beltsville,MD,Prince George's,"39.045022067240765","-76.9000827819154"
"20745",Oxon Hill,MD,Prince George's,"38.805508070275124","-76.99488177091115"
"20839",Beallsville,MD,Montgomery,"39.17905126824729","-77.41435171812516"
"20895",Kensington,MD,Montgomery,"39.02690307185367","-77.07777180976962"
"20910",Silver Spring,MD,Montgomery,"39.00237942410005","-77.03636096578519"
"21093",Lutherville Timonium,MD,Baltimore,"39.437734460018625","-76.64317750652361"
"21146",Severna Park,MD,Anne Arundel,"39.07740389241121","-76.5560984675967"
"21236",Nottingham,MD,Baltimore,"39.38795998345046","-76.48543411834135"
"21402",Annapolis,MD,Anne Arundel,"38.98816857189427","-76.47205256199737"
"21667",Still Pond,MD,Kent,"39.343714037949816","-76.05189541689576"
"21710",Adamstown,MD,Frederick,"39.296503684460276","-77.4494258261882"
"21754",Ijamsville,MD,Frederick,"39.33680566523306","-77.31129451379515"
"21779",Rohrersville,MD,Washington,"39.42449286271914","-77.65398973225734"
"21804",Salisbury,MD,Wicomico,"38.317264398454874","-75.53670259894878"
"21829",Girdletree,MD,Worcester,"38.09892143650488","-75.383188309583"
"20624",Clements,MD,St Mary's,"38.335194127749","-76.7344846535553"
"20680",Ridge,MD,St Mary's,"38.11074155969363","-76.37367019264093"
"20754",Dunkirk,MD,Calvert,"38.73596914260406","-76.65497238949042"
"20763",Savage,MD,Howard,"39.1378255004638","-76.82135589354691"
"20814",Bethesda,MD,Montgomery,"39.00505559136383","-77.10297815008074"
"20852",Rockville,MD,Montgomery,"39.05136088634837","-77.12506303759518"
"21108",Millersville,MD,Anne Arundel,"39.08929603916628","-76.62134944565645"
"21205",Baltimore,MD,Baltimore City,"39.302239272779566","-76.56407732861675"
"21623",Church Hill,MD,Queen Anne's,"39.119144285713745","-75.96268307607491"
"21632",Federalsburg,MD,Caroline,"38.72285283784677","-75.77483331873624"
"21653",Newcomb,MD,Talbot,"38.74747963690873","-76.17601948156975"
"21673",Trappe,MD,Talbot,"38.65197050375897","-76.03969564579232"
"21872",Whaleyville,MD,Worcester,"38.416297662233056","-75.29397204085295"
"20620",Callaway,MD,St Mary's,"38.23279562716046","-76.52189834023343"
"20622",Charlotte Hall,MD,Charles,"38.45117405378753","-76.84629665082214"
"20630",Drayden,MD,St Mary's,"38.166587353474974","-76.47085626087299"
"20664",Newburg,MD,Charles,"38.34994536472317","-76.9167691039331"
"20687",Scotland,MD,St Mary's,"38.07587140527117","-76.34404272015827"
"20690",Tall Timbers,MD,St Mary's,"38.159262153046654","-76.52624509840473"
"20692",Valley Lee,MD,St Mary's,"38.18349923813902","-76.5068808319268"
"20743",Capitol Heights,MD,Prince George's,"38.88373601038135","-76.89368734518341"
"20860",Sandy Spring,MD,Montgomery,"39.15075669250559","-77.03069098659688"
"20904",Silver Spring,MD,Montgomery,"39.06609639300642","-76.97917215646689"
"21157",Westminster,MD,Carroll,"39.548920385057286","-76.9815867007363"
"21202",Baltimore,MD,Baltimore City,"39.297121187444844","-76.60740022790718"
"21224",Baltimore,MD,Baltimore City,"39.282894977363696","-76.5408394332285"
"21622",Church Creek,MD,Dorchester,"38.40861320395231","-76.17359397783878"
"21638",Grasonville,MD,Queen Anne's,"38.94519402185547","-76.2025914409333"
"21649",Marydel,MD,Caroline,"39.13660599274815","-75.77453219403047"
"21758",Knoxville,MD,Frederick,"39.34567009478135","-77.66236834257366"
"21901",North East,MD,Cecil,"39.58613638929191","-75.95815294515698"
"45614",Bidwell,OH,Gallia,"38.92858709408604","-82.27817105258136"
"45663",West Portsmouth,OH,Scioto,"38.74504248360575","-83.11191722455993"
"45695",Wilkesville,OH,Vinton,"39.152890998296535","-82.36335463077914"
"45772",Reedsville,OH,Meigs,"39.14080673675948","-81.82261938998721"
"24726",Herndon,WV,Wyoming,"37.52083640591133","-81.37232600508693"
"24808",Anawalt,WV,McDowell,"37.331379558578504","-81.4104645662475"
"24826",Cucumber,WV,McDowell,"37.292130313495015","-81.62412963233326"
"24872",Panther,WV,McDowell,"37.44987099135348","-81.8931857474632"
"24878",Premier,WV,McDowell,"37.43208215654343","-81.63088159815953"
"24957",Maxwelton,WV,Greenbrier,"37.88730488149741","-80.40829682176614"
"25007",Arnett,WV,Raleigh,"37.82518476259626","-81.4276481454183"
"25048",Colcord,WV,Raleigh,"37.95447490969534","-81.44649808253781"
"25118",Kimberly,WV,Fayette,"38.11887030049907","-81.32296482798128"
"25132",Mammoth,WV,Kanawha,"38.29327891023278","-81.33440285129596"
"25185",Mount Olive,WV,Fayette,"38.22152712144197","-81.23588451430778"
"25244",Gay,WV,Jackson,"38.770690994350694","-81.54235051881972"
"25261",Millstone,WV,Calhoun,"38.83029381561505","-81.08885592723101"
"25523",Hamlin,WV,Lincoln,"38.27933597037259","-82.06755350902876"
"25606",Accoville,WV,Logan,"37.766442116926605","-81.82879266008891"
"43127",Haydenville,OH,Hocking,"39.47555605903567","-82.32180789854495"
"25840",Fayetteville,WV,Fayette,"38.03998822300035","-81.11440518389172"
"25976",Meadow Bridge,WV,Fayette,"37.84369856332778","-80.86215553658205"
"26161",Petroleum,WV,Ritchie,"39.167859647010765","-81.25258327331815"
"26257",Coalton,WV,Randolph,"38.92257221149085","-80.01238230571909"
"26270",Harman,WV,Randolph,"38.81233908436442","-79.60032812334352"
"26327",Berea,WV,Ritchie,"39.12284298971563","-80.94058991254792"
"26374",Independence,WV,Preston,"39.4475738018335","-79.88104205367245"
"26430",Sand Fork,WV,Gilmer,"38.88474781343735","-80.75982376025573"
"26452",Weston,WV,Lewis,"39.0328592109294","-80.51316288004655"
"26591",Worthington,WV,Marion,"39.454997985004965","-80.29027202890548"
"26679",Mount Nebo,WV,Nicholas,"38.165096266587106","-80.7971451323463"
"26855",Cabins,WV,Grant,"38.96931206310585","-79.25936432954022"
"26463",Wyatt,WV,Harrison,"39.43176157416321","-80.35013414115804"
"24993",Wolfcreek,WV,Monroe,"37.6609864714503","-80.63517886213815"
"24817",Bradshaw,WV,McDowell,"37.34211386739583","-81.81711870865634"
"24822",Clear Fork,WV,Wyoming,"37.62912180682579","-81.68752490252724"
"24844",Iaeger,WV,McDowell,"37.48557634888343","-81.78699741147295"
"24857",Lynco,WV,Wyoming,"37.69594236472193","-81.67560092182762"
"24894",Warriormine,WV,McDowell,"37.25192850796351","-81.69046243961087"
"25009",Ashford,WV,Boone,"38.19238518064559","-81.71303923147173"
"25031",Boomer,WV,Fayette,"38.146242366923836","-81.27995794616764"
"25126",London,WV,Kanawha,"38.19068812549574","-81.35407532760546"
"25243",Gandeeville,WV,Roane,"38.678426275873505","-81.48214866623309"
"25248",Kenna,WV,Jackson,"38.6425754865043","-81.61452911089484"
"45123",Greenfield,OH,Highland,"39.34867665874182","-83.38865285552883"
"25521",Griffithsville,WV,Lincoln,"38.22907521982794","-81.986476527713"
"25526",Hurricane,WV,Putnam,"38.398395647053604","-81.98278120243346"
"25540",Midkiff,WV,Lincoln,"38.15705676789673","-82.13911575454028"
"25661",Williamson,WV,Mingo,"37.71053751604817","-82.25373712913525"
"25669",Crum,WV,Wayne,"37.93181496801221","-82.45188537699566"
"25801",Beckley,WV,Raleigh,"37.838084319264176","-81.2702136024057"
"25918",Shady Spring,WV,Raleigh,"37.74574364229958","-81.00993117788057"
"25938",Victor,WV,Fayette,"38.159911832473334","-81.03446661055737"
"26138",Brohard,WV,Ritchie,"39.0211549682333","-81.18159492891583"
"26175",Sistersville,WV,Tyler,"39.53899769049861","-80.96567574265538"
"45648",Lucasville,OH,Scioto,"38.921613558037734","-83.01393216786064"
"45690",Waverly,OH,Pike,"39.13107321360673","-83.01673556681682"
"45742",Little Hocking,OH,Washington,"39.285630553916256","-81.73011264347106"
"45771",Racine,OH,Meigs,"38.9820814987643","-81.89901479351757"
"43149",Rockbridge,OH,Hocking,"39.537450547076254","-82.57187221376607"
"25876",Saulsville,WV,Wyoming,"37.6367273575236","-81.44733349862449"
"25969",Jumping Branch,WV,Summers,"37.61653716022214","-81.00903176461358"
"26134",Belmont,WV,Pleasants,"39.37691051460882","-81.2754072203894"
"26146",Friendly,WV,Tyler,"39.450508971068906","-81.03601873445444"
"26180",Walker,WV,Wood,"39.200160335411574","-81.36699367840518"
"26254",Bowden,WV,Randolph,"38.912601678090155","-79.65340014153564"
"26422",Reynoldsville,WV,Harrison,"39.29798306985793","-80.43322428685421"
"26572",Four States,WV,Marion,"39.48713534757273","-80.3196601495659"
"26617",Dille,WV,Clay,"38.48278488620141","-80.82571418355789"
"26680",Nallen,WV,Fayette,"38.089882958088246","-80.87423930209766"
"26802",Brandywine,WV,Pendleton,"38.644487016165726","-79.18708021672045"
"25231",Advent,WV,Jackson,"38.60456771738898","-81.59095621269822"
"25909",Prosperity,WV,Raleigh,"37.836792692631526","-81.20202069973459"
"25685",Naugatuck,WV,Martin,"37.79580416324151","-82.31434012178211"
"25421",Glengary,WV,Berkeley,"39.378210620642456","-78.16382513280239"
"24701",Bluefield,WV,Mercer,"37.29930272869299","-81.20647313200868"
"24716",Bud,WV,Wyoming,"37.53327500884151","-81.37335442549151"
"24719",Covel,WV,Wyoming,"37.4872415454758","-81.32658609430584"
"24731",Kegley,WV,Mercer,"37.39735361435329","-81.1516314597265"
"24818",Brenton,WV,Wyoming,"37.60809310184279","-81.6227617925078"
"24884",Squire,WV,McDowell,"37.27951042974883","-81.55055373742248"
"24941",Gap Mills,WV,Monroe,"37.58822592765124","-80.35773900849463"
"25045",Clendenin,WV,Kanawha,"38.4560591482956","-81.32474673466119"
"25115",Kanawha Falls,WV,Fayette,"38.130638014675405","-81.1899322622653"
"43115",Clarksburg,OH,Ross,"39.48988839840254","-83.16578961985745"
"25306",Charleston,WV,Kanawha,"38.310723652443386","-81.49085187578046"
"25541",Milton,WV,Cabell,"38.45882508270478","-82.12709206273482"
"25550",Point Pleasant,WV,Mason,"38.8665349648148","-82.07485281295467"
"25564",Sod,WV,Lincoln,"38.26302225707619","-81.88834725546451"
"25671",Dingess,WV,Mingo,"37.9040733458445","-82.20281607313393"
"25704",Huntington,WV,Wayne,"38.34977137201626","-82.50692646061431"
"25853",Helen,WV,Raleigh,"37.64619460620878","-81.27824123560156"
"25911",Raleigh,WV,Raleigh,"37.75239501786913","-81.17845434101288"
"25958",Charmco,WV,Greenbrier,"38.02155149197732","-80.76075396777523"
"26136",Big Bend,WV,Calhoun,"38.965536276558026","-81.11467628878175"
"26184",Waverly,WV,Wood,"39.297424909731646","-81.35086252685022"
"26287",Parsons,WV,Tucker,"39.166579114254326","-79.69058407224998"
"26343",Crawford,WV,Lewis,"38.82665080841504","-80.39831442945666"
"26377",Jacksonburg,WV,Wetzel,"39.491852913422164","-80.64065738846271"
"26386",Lumberport,WV,Harrison,"39.398777519789306","-80.40263002432556"
"26619",Exchange,WV,Braxton,"38.775389672378914","-80.73560175206858"
"26866",Upper Tract,WV,Pendleton,"38.8049336210693","-79.25117564225968"
"24714",Beeson,WV,Mercer,"37.47630691726722","-81.18353846232849"
"24729",Hiawatha,WV,Mercer,"37.4476608590457","-81.24690420416162"
"24733",Lashmeet,WV,Mercer,"37.44988659272757","-81.20087995274339"
"24747",Rock,WV,Mercer,"37.401832392690324","-81.22729093078169"
"24861",Maybeury,WV,McDowell,"37.36184258775757","-81.36523801651433"
"43787",Stockport,OH,Morgan,"39.532916520242196","-81.80555879493413"
"45656",Oak Hill,OH,Jackson,"38.87566002494734","-82.59145268445525"
"45658",Patriot,OH,Gallia,"38.76321912793288","-82.41407920003417"
"45684",Stout,OH,Scioto,"38.67544486521047","-83.27782422162718"
"45694",Wheelersburg,OH,Scioto,"38.74807237476715","-82.78347103929745"
"45760",Middleport,OH,Meigs,"39.01396936033383","-82.12241310633533"
"26615",Copen,WV,Braxton,"38.8324182386368","-80.73139499606582"
"26707",Bayard,WV,Grant,"39.22274463461629","-79.39421280498179"
"26808",High View,WV,Hampshire,"39.19564441084171","-78.4441867317281"
"25667",Chattaroy,WV,Mingo,"37.70618889765437","-82.27376767730402"
"24985",Wayside,WV,Monroe,"37.59988868019756","-80.68944008981464"
"20135",Bluemont,VA,Clarke,"39.08600409569175","-77.87662111280935"
"24712",Athens,WV,Mercer,"37.46904616222544","-81.02030378066941"
"24737",Montcalm,WV,Mercer,"37.35041095248098","-81.26059818433286"
"24801",Welch,WV,McDowell,"37.46840025387021","-81.55547983594737"
"24845",Ikes Fork,WV,Wyoming,"37.52641268887438","-81.8003828581297"
"24870",Oceana,WV,Wyoming,"37.73783782833875","-81.53208183160318"
"25008",Artie,WV,Raleigh,"37.950414720865176","-81.35762035104564"
"25040",Charlton Heights,WV,Fayette,"38.13670989413762","-81.2438664337673"
"25140",Naoma,WV,Raleigh,"37.86738536729683","-81.49733615223757"
"25234",Arnoldsburg,WV,Calhoun,"38.812928092042704","-81.12350314654381"
"25315",Charleston,WV,Kanawha,"38.21034724770442","-81.57993903987085"
"25401",Martinsburg,WV,Berkeley,"39.45646773291245","-77.97266756717737"
"25430",Kearneysville,WV,Jefferson,"39.34026725426607","-77.93899099307781"
"25503",Ashton,WV,Mason,"38.60832740988983","-82.11659635159887"
"25511",Dunlow,WV,Wayne,"38.03190147036803","-82.35636857967049"
"25567",Sumerco,WV,Lincoln,"38.21973035805497","-81.87291099482397"
"25635",Man,WV,Logan,"37.71938351101536","-81.8726452236031"
"25652",Whitman,WV,Logan,"37.78702263632687","-82.04862703884982"
"25705",Huntington,WV,Cabell,"38.40637832252321","-82.36272942340236"
"25839",Fairdale,WV,Raleigh,"37.78089051048565","-81.38227104828748"
"45646",Latham,OH,Pike,"39.076811592575694","-83.31637615668808"
"45697",Winchester,OH,Adams,"38.93513389114117","-83.66523484848544"
"45714",Belpre,OH,Washington,"39.31827534041158","-81.61998922213547"
"45776",Shade,OH,Athens,"39.18736455150328","-82.0227993873727"
"26234",Rock Cave,WV,Upshur,"38.766187949255865","-80.30834387359009"
"26294",Valley Head,WV,Randolph,"38.53444297765936","-80.02308235877625"
"26321",Alum Bridge,WV,Lewis,"39.05458773915452","-80.68730588290457"
"26325",Auburn,WV,Ritchie,"39.097489501742075","-80.88203071938862"
"26681",Nettie,WV,Nicholas,"38.229817764154426","-80.71904666945292"
"26764",Terra Alta,WV,Preston,"39.4504006056203","-79.56028002827941"
"26865",Yellow Spring,WV,Hampshire,"39.19055587028365","-78.51928147880004"
"24604",Bishop,VA,Tazewell,"37.210951192112056","-81.5436227262988"
"24724",Freeman,WV,Mercer,"37.3359681551036","-81.31570394483313"
"24827",Cyclone,WV,Wyoming,"37.75186755861195","-81.65998682172258"
"24836",Gary,WV,McDowell,"37.36847576786081","-81.54907319919076"
"24866",Newhall,WV,McDowell,"37.25217079649351","-81.59930794673754"
"24938",Frankford,WV,Greenbrier,"37.92514583094662","-80.38082878357194"
"24963",Peterstown,WV,Monroe,"37.43741250296517","-80.77621288557752"
"25024",Bloomingrose,WV,Boone,"38.157492447113434","-81.6265564301642"
"25081",Foster,WV,Boone,"38.08233485955065","-81.76872470194697"
"25093",Gordon,WV,Boone,"37.96534970320308","-81.64138097643468"
"25113",Ivydale,WV,Clay,"38.55743127841048","-81.03334207304124"
"25125",Lizemores,WV,Clay,"38.3155562586831","-81.1907418483916"
"25159",Poca,WV,Putnam,"38.50186759506157","-81.78060136867286"
"25204",Twilight,WV,Boone,"37.91543455480071","-81.60911968493942"
"25267",Normantown,WV,Gilmer,"38.85777310428347","-80.94186728304804"
"25276",Spencer,WV,Roane,"38.78801945600005","-81.3320227245566"
"43158",Union Furnace,OH,Hocking,"39.449692126122216","-82.3554868756956"
"45144",Manchester,OH,Adams,"38.70529712575818","-83.61429779956364"
"45644",Kingston,OH,Ross,"39.45242856555359","-82.84178085453209"
"45653",Minford,OH,Scioto,"38.88976738998021","-82.82307228921864"
"45671",Rarden,OH,Scioto,"38.973413679215916","-83.23776750567134"
"45698",Zaleski,OH,Vinton,"39.28815713616566","-82.39602326455338"
"45741",Langsville,OH,Meigs,"39.066534868582075","-82.25271784908173"
"45770",Portland,OH,Meigs,"38.985831855187406","-81.8023807544662"
"24868",Northfork,WV,McDowell,"37.42414485451466","-81.4026270011091"
"24869",North Spring,WV,Wyoming,"37.561368274803776","-81.82311376295624"
"24916",Asbury,WV,Greenbrier,"37.82732536260387","-80.57731035064873"
"24945",Greenville,WV,Monroe,"37.54108464369138","-80.68798128569478"
"24970",Ronceverte,WV,Greenbrier,"37.73237189963645","-80.47570585827292"
"25049",Comfort,WV,Boone,"38.1195481842286","-81.57312725140858"
"25085",Gauley Bridge,WV,Fayette,"38.16764184203657","-81.18870462018815"
"25103",Hansford,WV,Kanawha,"38.18208565396838","-81.38224764705872"
"25205",Uneeda,WV,Boone,"38.01841908779681","-81.78923456539462"
"25239",Cottageville,WV,Jackson,"38.846158409977626","-81.83942052550707"
"25303",Charleston,WV,Kanawha,"38.360331766703496","-81.68683687052534"
"25427",Hedgesville,WV,Berkeley,"39.526132233719466","-78.09094909903857"
"25446",Summit Point,WV,Jefferson,"39.240167621005284","-77.95705407132976"
"25507",Ceredo,WV,Wayne,"38.39950463923069","-82.55171983292033"
"25637",Mount Gay,WV,Logan,"37.85084597276369","-82.02799779138216"
"25672",Edgarton,WV,Mingo,"37.570102638036694","-82.10040027589375"
"25844",Glen Daniel,WV,Raleigh,"37.81055350036313","-81.37018139450363"
"25922",Spanishburg,WV,Mercer,"37.471387866579924","-81.09971000710385"
"26150",Mineral Wells,WV,Wood,"39.15662965474216","-81.5369729531442"
"26169",Rockport,WV,Wood,"39.072930058522964","-81.57117667075937"
"26224",Helvetia,WV,Randolph,"38.7448619292146","-80.17471840088189"
"26260",Davis,WV,Tucker,"39.08923468249048","-79.41147881588498"
"26410",Newburg,WV,Preston,"39.40322800125623","-79.82388700584676"
"45169",Sabina,OH,Clinton,"39.50498832681443","-83.65035158334625"
"45638",Ironton,OH,Lawrence,"38.56220310554957","-82.67600720009597"
"45672",Ray,OH,Jackson,"39.20546831257287","-82.67581356365915"
"45767",New Matamoras,OH,Washington,"39.543679687079916","-81.13119751780503"
"45622",Creola,OH,Vinton,"39.35898171483688","-82.49520929568659"
"45662",Portsmouth,OH,Scioto,"38.78938217364592","-82.92115999936549"
"45685",Thurman,OH,Gallia,"38.93327978475436","-82.45267131967186"
"45696",Willow Wood,OH,Lawrence,"38.60359325253138","-82.4520315270471"
"45778",Stewart,OH,Athens,"39.346722526125745","-81.89554023632144"
"43160",Washington Court House,OH,Fayette,"39.52870483356222","-83.43918039718511"
"37869",Sneedville,TN,Hancock,"36.51558900101305","-83.2457654782746"
"45616",Blue Creek,OH,Adams,"38.760153540824405","-83.30861462731143"
"45743",Long Bottom,OH,Meigs,"39.07600732711016","-81.85019722033321"
"45769",Pomeroy,OH,Meigs,"39.10622379748949","-82.045818617434"
"37879",Tazewell,TN,Claiborne,"36.48403141741477","-83.48705784600317"
"37645",Mount Carmel,TN,Hawkins,"36.56276735298433","-82.66245333371468"
"41166",Quincy,KY,Lewis,"38.63466316125455","-83.09328814181761"
"41301",Campton,KY,Wolfe,"37.72119683622963","-83.48941391947044"
"41534",Hellier,KY,Pike,"37.27747737348378","-82.49650612277063"
"41554",Phyllis,KY,Pike,"37.43918659480999","-82.32445855825681"
"41723",Busy,KY,Perry,"37.25468847094128","-83.31408737953164"
"41754",Krypton,KY,Perry,"37.300219646270065","-83.32463437719176"
"41764",Smilax,KY,Leslie,"37.129254895543475","-83.25543218263783"
"41832",Letcher,KY,Letcher,"37.15281283949036","-82.95478330990784"
"41837",Mayking,KY,Letcher,"37.121471232923426","-82.75230716405268"
"41181",Willard,KY,Carter,"38.207601069077526","-82.87428049141664"
"27048",Stoneville,NC,Rockingham,"36.476136749561576","-79.91297959895057"
"27053",Westfield,NC,Stokes,"36.47318813573502","-80.34989671759763"
"41168",Rush,KY,Boyd,"38.307326612985655","-82.76992899139864"
"41174",South Portsmouth,KY,Greenup,"38.69843712732972","-83.01390981266383"
"41214",Debord,KY,Martin,"37.79449202701255","-82.59837587228772"
"41268",West Van Lear,KY,Johnson,"37.787902587461566","-82.78429690453325"
"41365",Rogers,KY,Wolfe,"37.71117178693121","-83.6266204119647"
"41557",Raccoon,KY,Pike,"37.48188816690545","-82.41546850825449"
"41630",Garrett,KY,Floyd,"37.464184844428516","-82.84995159300192"
"41740",Emmalena,KY,Knott,"37.35650856271039","-83.04669782714004"
"41819",Gordon,KY,Letcher,"36.99191958465274","-83.0778895771597"
"27507",Bullock,NC,Granville,"36.51256637617188","-78.55146717101373"
"28631",Grassy Creek,NC,Ashe,"36.55218757251475","-81.40994958696325"
"27046",Sandy Ridge,NC,Stokes,"36.49227774396758","-80.09221175504352"
"27537",Henderson,NC,Vance,"36.353426797307804","-78.3888617050289"
"27553",Manson,NC,Warren,"36.48049845068501","-78.30642538166224"
"27831",Garysburg,NC,Northampton,"36.45606911667521","-77.56570715112221"
"27832",Gaston,NC,Northampton,"36.5125898762873","-77.72175131761404"
"27022",Lawsonville,NC,Stokes,"36.514095066079285","-80.21741172117419"
"27818",Como,NC,Hertford,"36.50275845067029","-77.01399292508715"
"27950",Knotts Island,NC,Currituck,"36.52594184062663","-76.00070608241461"
"40313",Clearfield,KY,Rowan,"38.13213788263899","-83.38973232225106"
"40360",Owingsville,KY,Bath,"38.1566731741559","-83.76679151930418"
"40810",Bledsoe,KY,Harlan,"36.93173520032123","-83.30458469425183"
"40816",Chappell,KY,Leslie,"37.008812452270654","-83.36672244948768"
"41139",Flatwoods,KY,Greenup,"38.50925759197202","-82.7328774415025"
"41262",Tomahawk,KY,Martin,"37.8511405994654","-82.61378487828534"
"41390",Whick,KY,Breathitt,"37.418759016514144","-83.37912643640762"
"41560",Robinson Creek,KY,Pike,"37.39419693458504","-82.57873002130677"
"41619",Drift,KY,Floyd,"37.48326535692591","-82.74184676914209"
"41727",Chavies,KY,Perry,"37.35623129316176","-83.32349607545409"
"41745",Gays Creek,KY,Perry,"37.34454108585837","-83.42845207930779"
"41838",Millstone,KY,Letcher,"37.19675752839387","-82.75138258010011"
"40803",Asher,KY,Leslie,"37.045721166592564","-83.42184908326429"
"40902",Arjay,KY,Bell,"36.848237425702614","-83.62433437086615"
"41049",Hillsboro,KY,Fleming,"38.27464785976942","-83.64583144346426"
"41124",Blaine,KY,Lawrence,"38.021458976937176","-82.8511719817636"
"41201",Adams,KY,Lawrence,"38.062053162115966","-82.75762647838468"
"41425",Ezel,KY,Morgan,"37.88406659501959","-83.42765213434873"
"41539",Kimper,KY,Pike,"37.502628609598986","-82.3223117003707"
"41553",Phelps,KY,Pike,"37.4805889496048","-82.16028990377777"
"41603",Banner,KY,Floyd,"37.55933118794476","-82.68704929399041"
"41640",Hueysville,KY,Floyd,"37.4764776430812","-82.9264555745348"
"41840",Neon,KY,Letcher,"37.19964156587393","-82.71810694356738"
"27311",Pelham,NC,Caswell,"36.481432046247406","-79.47572545120592"
"40351",Morehead,KY,Rowan,"38.19816741671568","-83.41328502946558"
"40380",Stanton,KY,Powell,"37.81963720709242","-83.78004647764772"
"40844",Hoskinston,KY,Leslie,"37.055070100901716","-83.35407411910788"
"40874",Warbranch,KY,Leslie,"36.98403642513529","-83.47344261317681"
"41144",Greenup,KY,Greenup,"38.53464667993192","-82.91211108985402"
"41234",Meally,KY,Johnson,"37.79654719026835","-82.74163834974243"
"41257",Stambaugh,KY,Johnson,"37.9137027883085","-82.80441482368005"
"41472",West Liberty,KY,Morgan,"37.94178860362566","-83.22333745308492"
"41544",Mc Carr,KY,Pike,"37.59589965799208","-82.17367985172558"
"41566",Steele,KY,Pike,"37.408304164294435","-82.19208105517592"
"41636",Hi Hat,KY,Floyd,"37.39769603456596","-82.73087915806659"
"41719",Bonnyman,KY,Perry,"37.29730147193825","-83.24519365652112"
"41759",Sassafras,KY,Knott,"37.23212245877681","-83.02523523338498"
"41859",Dema,KY,Knott,"37.39923398971455","-82.77603538743269"
"28675",Sparta,NC,Alleghany,"36.50641046978395","-81.13544190518512"
"27315",Providence,NC,Caswell,"36.506230434819514","-79.3916884434687"
"40316",Denniston,KY,Menifee,"37.9341827290848","-83.5289539915901"
"40845",Hulen,KY,Bell,"36.798973234037305","-83.51754475671886"
"40868",Stinnett,KY,Leslie,"37.093676928701434","-83.41632947297998"
"41189",Tollesboro,KY,Lewis,"38.54494736014369","-83.56174469033891"
"41274",Wittensville,KY,Johnson,"37.86173773928279","-82.81168521103076"
"41616",David,KY,Floyd,"37.58522704686741","-82.87845438152077"
"41643",Lackey,KY,Knott,"37.43778944844478","-82.84308089060278"
"41653",Prestonsburg,KY,Floyd,"37.66029017531572","-82.7646836930615"
"41746",Happy,KY,Perry,"37.215770217073384","-83.09779051443671"
"41821",Hallie,KY,Letcher,"37.07563272721441","-83.00712353710378"
"40376",Slade,KY,Powell,"37.783918263845315","-83.69606315295638"
"27024",Lowgap,NC,Surry,"36.52401393199958","-80.84023477756271"
"40823",Cumberland,KY,Harlan,"36.95665104461871","-82.98861896799977"
"40982",Scalf,KY,Knox,"36.932406720909036","-83.69419411110603"
"41102",Ashland,KY,Boyd,"38.42041527048632","-82.72427515836407"
"41222",Hagerhill,KY,Johnson,"37.77037879025711","-82.85030211374995"
"41465",Salyersville,KY,Magoffin,"37.729854673944224","-83.08491350885024"
"41562",Shelbiana,KY,Pike,"37.39912418347176","-82.47052106826426"
"41563",Shelby Gap,KY,Pike,"37.22626070976165","-82.53697111335345"
"41722",Bulan,KY,Perry,"37.40442359230122","-83.10331046306005"
"41826",Jeremiah,KY,Letcher,"37.17353574200204","-82.92117769620891"
"40856",Miracle,KY,Bell,"36.70576161704504","-83.52944325708567"
"40927",Closplint,KY,Harlan,"36.89080006450372","-83.034423361918"
"41230",Louisa,KY,Lawrence,"38.065614869879795","-82.66197159038803"
"41264",Ulysses,KY,Lawrence,"37.94019645836977","-82.67700963425584"
"41572",Virgie,KY,Pike,"37.31341659347635","-82.6436744876724"
"41606",Bevinsville,KY,Floyd,"37.34589127754398","-82.73747914176806"
"41667",Weeksbury,KY,Floyd,"37.311344231904265","-82.69883431367147"
"41812",Deane,KY,Letcher,"37.24727620648712","-82.74442713858761"
"41825",Jackhorn,KY,Letcher,"37.23315392439442","-82.70853093937987"
"41845",Premium,KY,Letcher,"37.13963987643404","-82.9029647350656"
"27574",Roxboro,NC,Person,"36.43169700316543","-78.94144211992408"
"40322",Frenchburg,KY,Menifee,"37.9336595919812","-83.63331651657853"
"40819",Coldiron,KY,Harlan,"36.81025853843405","-83.46245345162802"
"41129",Catlettsburg,KY,Boyd,"38.317542359261516","-82.64070506528597"
"23113",Midlothian,VA,Chesterfield,"37.5393710231163","-77.68093931495214"
"23120",Moseley,VA,Chesterfield,"37.40870561935833","-77.78465983218517"
"23128",North,VA,Mathews,"37.45123592896319","-76.43199044213812"
"23160",State Farm,VA,Goochland,"37.62757349687301","-77.84027109360473"
"23303",Atlantic,VA,Accomack,"37.903421401274365","-75.50563872301201"
"23314",Carrollton,VA,Isle of Wight,"36.95057611483288","-76.53625885771008"
"23421",Parksley,VA,Accomack,"37.76568185157745","-75.61431497854593"
"23442",Temperanceville,VA,Accomack,"37.90128002843715","-75.56877809545095"
"23462",Virginia Beach,VA,Virginia Beach City,"36.836619197335956","-76.15105850487805"
"23601",Newport News,VA,Newport News City,"37.058638211509255","-76.46415646727017"
"23665",Hampton,VA,Hampton City,"37.08960015563433","-76.3630359406266"
"23847",Emporia,VA,Emporia City,"36.66797009463521","-77.54972682941164"
"23888",Wakefield,VA,Sussex,"36.95385920920643","-76.97800133175005"
"23944",Kenbridge,VA,Lunenburg,"36.90559960087571","-78.13317344616037"
"24066",Buchanan,VA,Botetourt,"37.53818965704198","-79.6782148577378"
"24092",Glade Hill,VA,Franklin,"37.00157421048445","-79.76306041281309"
"24136",Pembroke,VA,Giles,"37.31926424446215","-80.60687467971778"
"24217",Bee,VA,Dickenson,"37.10138441579209","-82.17781352792586"
"24230",Coeburn,VA,Wise,"36.969280168087224","-82.45451230977191"
"24319",Chilhowie,VA,Smyth,"36.760461364482474","-81.65779218554003"
"24361",Meadowview,VA,Washington,"36.76673573063502","-81.84551447966557"
"24366",Rocky Gap,VA,Bland,"37.264226498807936","-81.10328179123343"
"23805",Petersburg,VA,Prince George,"37.12923818652338","-77.39530521493153"
"23830",Carson,VA,Prince George,"37.02096046873264","-77.39770992972373"
"23831",Chester,VA,Chesterfield,"37.34438562208525","-77.45002021834053"
"23838",Chesterfield,VA,Chesterfield,"37.31770654698918","-77.63289798184545"
"23840",Dewitt,VA,Dinwiddie,"37.05638967029304","-77.67074911075973"
"23860",Hopewell,VA,Hopewell City,"37.28266603733405","-77.2226279917351"
"23901",Farmville,VA,Prince Edward,"37.32308465804876","-78.41185372185757"
"23962",Randolph,VA,Charlotte,"36.93861056403017","-78.70399122127739"
"24201",Bristol,VA,Bristol City,"36.610564751211925","-82.16983463819822"
"24273",Norton,VA,Norton City,"36.96144078205361","-82.65632650307629"
"24313",Barren Springs,VA,Wythe,"36.910512434789524","-80.7980602255379"
"24426",Covington,VA,Alleghany,"37.765869599964695","-80.0692166062909"
"24526",Big Island,VA,Bedford,"37.554529271095554","-79.40169362352324"
"24539",Crystal Hill,VA,Halifax,"36.85372815938948","-78.90734037230908"
"24613",Falls Mills,VA,Tazewell,"37.26199436690442","-81.33856051409111"
"20137",Broad Run,VA,Fauquier,"38.8068326228291","-77.72995445717558"
"20165",Sterling,VA,Loudoun,"39.050671465343015","-77.38842903017198"
"20166",Sterling,VA,Loudoun,"38.971439353407845","-77.4637425906707"
"20175",Leesburg,VA,Loudoun,"39.064096605985064","-77.59941543810946"
"22066",Great Falls,VA,Fairfax,"39.01031620511512","-77.30264232066656"
"22310",Alexandria,VA,Fairfax,"38.7844839745165","-77.12229236068202"
"22437",Center Cross,VA,Essex,"37.77637817768679","-76.81563458938706"
"22482",Kilmarnock,VA,Northumberland,"37.737223791450184","-76.35244074984698"
"22714",Brandy Station,VA,Culpeper,"38.520680314543014","-77.893600399839"
"22736",Richardsville,VA,Culpeper,"38.396317260417135","-77.69669250420861"
"22935",Dyke,VA,Greene,"38.25789557084747","-78.55476806426462"
"22976",Tyro,VA,Nelson,"37.84553589804258","-79.04032432638544"
"23055",Fork Union,VA,Fluvanna,"37.77060782724796","-78.21849947701999"
"23069",Hanover,VA,Hanover,"37.769238307370316","-77.32872153213467"
"23108",Mascot,VA,King and Queen,"37.655276051823535","-76.7301728645483"
"23149",Saluda,VA,Gloucester,"37.56795708721113","-76.61597234839519"
"23163",Susan,VA,Mathews,"37.35719588119254","-76.2976639941987"
"23221",Richmond,VA,Richmond City,"37.55323429440831","-77.49055181033083"
"23322",Chesapeake,VA,Chesapeake City,"36.62696541259139","-76.26941217682571"
"23415",New Church,VA,Accomack,"37.974668859241476","-75.53433127565981"
"23437",Suffolk,VA,Suffolk City,"36.63533560122423","-76.80252820618874"
"23701",Portsmouth,VA,Portsmouth City,"36.81158824913686","-76.36987953495026"
"23828",Branchville,VA,Southampton,"36.58694216431449","-77.28554454390573"
"23868",Lawrenceville,VA,Brunswick,"36.709960249165","-77.80379035300156"
"23966",Rice,VA,Prince Edward,"37.29176860322936","-78.27418862296635"
"24054",Axton,VA,Henry,"36.67803886895334","-79.70394637760319"
"24082",Critz,VA,Patrick,"36.629228728787865","-80.13202476696482"
"24175",Troutville,VA,Botetourt,"37.42590985723876","-79.93789270862572"
"24269",Mc Clure,VA,Dickenson,"37.08022006220657","-82.37892923143762"
"24318",Ceres,VA,Bland,"37.00048413178067","-81.38654544684135"
"24375",Sugar Grove,VA,Smyth,"36.77130058122744","-81.39024267045826"
"24458",Mc Dowell,VA,Highland,"38.330685140943594","-79.51201285288172"
"24467",Mount Sidney,VA,Augusta,"38.25920881399005","-78.97249579559345"
"24529",Buffalo Junction,VA,Mecklenburg,"36.624544353472736","-78.64006894459119"
"24061",Blacksburg,VA,Montgomery,"37.22540921938354","-80.42671802207508"
"20112",Manassas,VA,Prince William,"38.67269950950002","-77.42899569866782"
"20141",Round Hill,VA,Loudoun,"39.116746991680785","-77.79156846432167"
"20144",Delaplane,VA,Fauquier,"38.92116739121833","-77.93759525938626"
"20148",Ashburn,VA,Loudoun,"38.99060790094503","-77.5328799962586"
"20197",Waterford,VA,Loudoun,"39.19381704219717","-77.62252876949398"
"22172",Triangle,VA,Prince William,"38.574169942325426","-77.38948242278903"
"22303",Alexandria,VA,Fairfax,"38.79401573442656","-77.08161687917656"
"22307",Alexandria,VA,Fairfax,"38.77068195738684","-77.05700262115988"
"22309",Alexandria,VA,Fairfax,"38.71922796772779","-77.10726812488575"
"22427",Bowling Green,VA,Caroline,"38.07180856725275","-77.28624555619007"
"22551",Spotsylvania,VA,Spotsylvania,"38.17272878535669","-77.70575634606581"
"22576",Weems,VA,Lancaster,"37.693995313609825","-76.43277567088369"
"22644",Maurertown,VA,Shenandoah,"38.963595173437376","-78.53138014860106"
"22663",White Post,VA,Clarke,"39.04999223873042","-78.1171773876906"
"22743",Syria,VA,Madison,"38.524751549774564","-78.37132019181584"
"22964",Piney River,VA,Nelson,"37.71723415689751","-78.98866865940873"
"23056",Foster,VA,Mathews,"37.4181211518681","-76.38718988309044"
"23079",Jamaica,VA,Middlesex,"37.72479296075514","-76.68942248522205"
"23111",Mechanicsville,VA,Hanover,"37.61121664580066","-77.2469707335284"
"23150",Sandston,VA,Henrico,"37.507151528213136","-77.25399998981972"
"23236",Richmond,VA,Chesterfield,"37.47437585803566","-77.5863917408612"
"23354",Franktown,VA,Northampton,"37.478086736030555","-75.90214043449888"
"23438",Suffolk,VA,Suffolk City,"36.5811876605152","-76.6971817610407"
"23510",Norfolk,VA,Norfolk City,"36.85178922115455","-76.29146829133587"
"23661",Hampton,VA,Hampton City,"37.00803818948253","-76.38602520947812"
"23834",Colonial Heights,VA,Colonial Heights City,"37.28911461065705","-77.40064919060629"
"23857",Gasburg,VA,Brunswick,"36.58386324946665","-77.88585148473902"
"23938",Dundas,VA,Brunswick,"36.90539472281947","-78.00462806993376"
"23960",Prospect,VA,Prince Edward,"37.31531671841469","-78.55791155983023"
"24053",Ararat,VA,Patrick,"36.61007115060878","-80.53279733399641"
"24087",Elliston,VA,Montgomery,"37.22591884534579","-80.24748923566204"
"24090",Fincastle,VA,Botetourt,"37.526330237036426","-79.88921498748833"
"24138",Pilot,VA,Montgomery,"37.05053898690326","-80.3168114256618"
"24171",Stuart,VA,Patrick,"36.670991341269925","-80.23833524916789"
"24314",Bastian,VA,Bland,"37.17167897525951","-81.20723853154485"
"24485",West Augusta,VA,Augusta,"38.27522449739174","-79.33164650670862"
"24553",Gladstone,VA,Amherst,"37.54847054398554","-78.81910822747044"
"24586",Ringgold,VA,Pittsylvania,"36.60787369411931","-79.28280614169185"
"24606",Boissevain,VA,Tazewell,"37.28808022945335","-81.39183104097805"
"20111",Manassas,VA,Manassas Park City,"38.74906892317222","-77.43037447483837"
"20117",Middleburg,VA,Loudoun,"38.994751748171986","-77.73853120481729"
"20124",Clifton,VA,Fairfax,"38.78058341676271","-77.3908734889828"
"20147",Ashburn,VA,Loudoun,"39.04151035023207","-77.47958700543197"
"20194",Reston,VA,Fairfax,"38.97996125517492","-77.3435407872256"
"22043",Falls Church,VA,Fairfax,"38.90068506236619","-77.19752164356113"
"22204",Arlington,VA,Arlington,"38.86074138535539","-77.09895473149233"
"22312",Alexandria,VA,Fairfax,"38.816864595624196","-77.15368487350891"
"22554",Stafford,VA,Stafford,"38.422890048048615","-77.38350099787753"
"22645",Middletown,VA,Frederick,"39.021464457334986","-78.27454210130944"
"22728",Midland,VA,Fauquier,"38.577721407001","-77.68638328940285"
"22811",Bergton,VA,Rockingham,"38.792589443129536","-78.9756249637209"
"22844",New Market,VA,Shenandoah,"38.658869775883446","-78.66040463112326"
"22901",Charlottesville,VA,Albemarle,"38.088752270046136","-78.55567327487466"
"22989",Woodberry Forest,VA,Madison,"38.29326252295008","-78.11940547108789"
"23070",Hardyville,VA,Middlesex,"37.55059441406657","-76.38526807822636"
"22539",Reedville,VA,Northumberland,"37.85862866473323","-76.28730998064079"
"22567",Unionville,VA,Orange,"38.233918933360606","-77.92398150757262"
"22611",Berryville,VA,Clarke,"39.163745075933114","-77.9851319553366"
"22620",Boyce,VA,Clarke,"39.06414954740867","-78.03317579995199"
"22713",Boston,VA,Culpeper,"38.54124308257144","-78.13200646233058"
"22742",Sumerduck,VA,Fauquier,"38.4588993600762","-77.71179637070712"
"22832",Keezletown,VA,Rockingham,"38.45776460656085","-78.75691877340121"
"22849",Shenandoah,VA,Page,"38.52560504831031","-78.62528483225603"
"22942",Gordonsville,VA,Louisa,"38.103967082065815","-78.19684660484181"
"23065",Gum Spring,VA,Goochland,"37.801595016920224","-77.92978182283392"
"23103",Manakin Sabot,VA,Goochland,"37.65060192510091","-77.72754479774837"
"23130",Onemo,VA,Mathews,"37.39048647096665","-76.26495862311175"
"23185",Williamsburg,VA,Williamsburg City,"37.24925794073982","-76.68701137651969"
"23228",Henrico,VA,Henrico,"37.62587230429713","-77.49126430715538"
"23302",Assawoman,VA,Accomack,"37.85858125548009","-75.52200908915306"
"23801",Fort Lee,VA,Prince George,"37.23613076867111","-77.33580409336942"
"23836",Chester,VA,Chesterfield,"37.35091399614348","-77.33250185390304"
"23842",Disputanta,VA,Prince George,"37.13624435448908","-77.22086001095558"
"23882",Stony Creek,VA,Sussex,"36.925885873440315","-77.41541084638774"
"23920",Brodnax,VA,Brunswick,"36.72454082135995","-77.97267732965376"
"23954",Meherrin,VA,Prince Edward,"37.10892478448917","-78.38702602518701"
"23976",Wylliesburg,VA,Charlotte,"36.84822440969759","-78.57969919715602"
"24076",Claudville,VA,Patrick,"36.59714614051731","-80.42096183051318"
"24122",Montvale,VA,Bedford,"37.421196594186156","-79.69375072397365"
"24368",Rural Retreat,VA,Wythe,"36.89284115131617","-81.30004897631758"
"24377",Tannersville,VA,Tazewell,"37.002070002271964","-81.56957639331439"
"24422",Clifton Forge,VA,Alleghany,"37.83041383236819","-79.75124832598935"
"24433",Doe Hill,VA,Highland,"38.41817188785728","-79.46461644507968"
"24442",Head Waters,VA,Highland,"38.35971166145113","-79.390283589339"
"24534",Clover,VA,Halifax,"36.87833224993955","-78.76692802458659"
"24558",Halifax,VA,Halifax,"36.779129698374376","-78.95746386016296"
"24609",Cedar Bluff,VA,Tazewell,"37.02952411271355","-81.7950630921845"
"24637",Pounding Mill,VA,Tazewell,"37.052565193319374","-81.7098077161654"
"24323",Crockett,VA,Wythe,"36.86514471294242","-81.19971444510786"
"24430",Craigsville,VA,Augusta,"38.07601014797721","-79.34182164333143"
"24540",Danville,VA,Danville City,"36.64236143985091","-79.42474434708822"
"24556",Goode,VA,Bedford,"37.381010203907536","-79.40212304924843"
"24572",Madison Heights,VA,Amherst,"37.46512191427769","-79.096274758732"
"24581",Norwood,VA,Nelson,"37.65692302519044","-78.80982113994182"
"20119",Catlett,VA,Fauquier,"38.62159935833754","-77.6281799891211"
"20132",Purcellville,VA,Loudoun,"39.16655719755327","-77.72748925680733"
"20143",Catharpin,VA,Prince William,"38.86416849400801","-77.56793865605405"
"20158",Hamilton,VA,Loudoun,"39.1412761252672","-77.65511824500912"
"22003",Annandale,VA,Fairfax,"38.830778010710375","-77.21400016136448"
"22311",Alexandria,VA,Alexandria City,"38.8345059789499","-77.12307219439653"
"22408",Fredericksburg,VA,Spotsylvania,"38.21917663060996","-77.44013519287188"
"22504",Laneview,VA,Essex,"37.763529539033364","-76.72677241736484"
"22578",White Stone,VA,Lancaster,"37.650613502854945","-76.36267999430851"
"22641",Strasburg,VA,Shenandoah,"39.07795656571261","-78.38588110639809"
"22729",Mitchells,VA,Culpeper,"38.35657172979699","-78.01595654233618"
"22801",Harrisonburg,VA,Harrisonburg City,"38.40519682731767","-78.87927393826006"
"22940",Free Union,VA,Albemarle,"38.2055427025581","-78.59703588825435"
"23109",Mathews,VA,Mathews,"37.432627037765116","-76.3244619385437"
"23181",West Point,VA,King William,"37.59809970955858","-76.88900678440494"
"23315",Carrsville,VA,Isle of Wight,"36.738583788626336","-76.84280787360304"
"23417",Onancock,VA,Accomack,"37.73059937853125","-75.76685947004519"
"23503",Norfolk,VA,Norfolk City,"36.947262497084814","-76.26229496260007"
"25235",Chloe,WV,Calhoun,"38.66938791372898","-81.08875138139572"
"25302",Charleston,WV,Kanawha,"38.39053273940062","-81.59878632615153"
"25529",Julian,WV,Boone,"38.15569524782947","-81.82447445595932"
"25625",Holden,WV,Logan,"37.822364744475905","-82.09210617957322"
"25845",Glen Fork,WV,Wyoming,"37.70289624907439","-81.51112435222274"
"25871",Mabscott,WV,Raleigh,"37.769170576803205","-81.211734837692"
"25979",Pipestem,WV,Summers,"37.51260843786637","-80.91735816597642"
"26152",Munday,WV,Wirt,"38.98356836181949","-81.19313831110064"
"26208",Camden On Gauley,WV,Webster,"38.347814664138454","-80.57313632034536"
"26250",Belington,WV,Barbour,"39.02757324409218","-79.96199808331521"
"26273",Huttonsville,WV,Randolph,"38.629934676621446","-79.96300689639322"
"26349",Galloway,WV,Barbour,"39.22747541207452","-80.11082845155887"
"26416",Philippi,WV,Barbour,"39.163505082300674","-80.02245888553969"
"26568",Enterprise,WV,Harrison,"39.42534556128916","-80.27727507091234"
"26582",Mannington,WV,Marion,"39.53113103739354","-80.3876843903691"
"26678",Mount Lookout,WV,Nicholas,"38.16881886992668","-80.91085710617506"
"26722",Green Spring,WV,Hampshire,"39.497784485106344","-78.63460357125628"
"24715",Bramwell,WV,Mercer,"37.33410457733478","-81.32930950097702"
"24813",Bartley,WV,McDowell,"37.35953214140469","-81.72483343195702"
"24823",Coal Mountain,WV,Wyoming,"37.667599220123215","-81.74106934791143"
"24850",Jolo,WV,McDowell,"37.37805930003136","-81.88515414445406"
"24871",Pageton,WV,McDowell,"37.31698106868139","-81.48551321927646"
"24924",Buckeye,WV,Pocahontas,"38.19297340790469","-80.15173024445991"
"24935",Forest Hill,WV,Summers,"37.56365781470256","-80.80341800969396"
"24944",Green Bank,WV,Pocahontas,"38.3992115223927","-79.77108999566427"
"24966",Renick,WV,Greenbrier,"38.03346069052473","-80.35284250014519"
"24981",Talcott,WV,Summers,"37.63257049073328","-80.73969167341333"
"25123",Leon,WV,Mason,"38.731727007750585","-81.90212962057599"
"25136",Montgomery,WV,Fayette,"38.15865470552015","-81.3197663335587"
"25164",Procious,WV,Clay,"38.50405158006214","-81.19374495139007"
"25214",Winifrede,WV,Kanawha,"38.18946047527824","-81.55125204071732"
"25251",Left Hand,WV,Roane,"38.6211994912061","-81.23175254760116"
"25309",Charleston,WV,Kanawha,"38.31177967010936","-81.75715529112547"
"25434",Paw Paw,WV,Hampshire,"39.457892928035406","-78.45039092858065"
"25608",Baisden,WV,Mingo,"37.57507026585882","-81.89162504731097"
"25644",Sarah Ann,WV,Logan,"37.70190936630402","-82.00109975393724"
"25848",Glen Rogers,WV,Wyoming,"37.71428865881261","-81.43115860908878"
"25864",Layland,WV,Raleigh,"37.87948167766725","-81.01779062662487"
"26137",Big Springs,WV,Gilmer,"39.00644357854143","-81.03848362574868"
"26222",Hacker Valley,WV,Webster,"38.661246506647245","-80.37123247735063"
"26236",Selbyville,WV,Upshur,"38.71758335256685","-80.23086646183853"
"26384",Linn,WV,Gilmer,"38.974669009555996","-80.71779773830303"
"26761",Shanks,WV,Hampshire,"39.27305435523555","-78.69967913541078"
"26847",Petersburg,WV,Grant,"38.958102860300976","-79.15187566070833"
"26667",Drennen,WV,Nicholas,"38.23836662184662","-80.99907225902913"
"24736",Matoaka,WV,Mercer,"37.45043577172642","-81.29584998415305"
"24811",Avondale,WV,McDowell,"37.40881728890979","-81.75386933539716"
"24815",Berwind,WV,McDowell,"37.220336816823675","-81.6302606527634"
"24839",Hanover,WV,Wyoming,"37.582179023460846","-81.76501407470808"
"24888",Thorpe,WV,McDowell,"37.36197378340554","-81.48888374768828"
"24925",Caldwell,WV,Greenbrier,"37.72917340457483","-80.38344633730415"
"25019",Bickmore,WV,Clay,"38.37665044313251","-81.08952483620588"
"25030",Bomont,WV,Clay,"38.45028944063371","-81.22602675860983"
"25114",Jeffrey,WV,Boone,"37.98195664658111","-81.79862551704194"
"25134",Miami,WV,Kanawha,"38.13597996919379","-81.48549646405303"
"25187",Southside,WV,Mason,"38.72618674056121","-82.01879738644345"
"25206",Van,WV,Boone,"37.959571004088026","-81.69300237597479"
"25252",Le Roy,WV,Jackson,"38.883440783081845","-81.53679429828915"
"25314",Charleston,WV,Kanawha,"38.29706928826324","-81.65466357001843"
"25420",Gerrardstown,WV,Berkeley,"39.38095938754861","-78.11967148786948"
"25508",Chapmanville,WV,Logan,"37.96389937929208","-82.01388561253502"
"25534",Kiahsville,WV,Wayne,"38.080621081670664","-82.27778859101147"
"25611",Bruno,WV,Logan,"37.68318745573631","-81.87065727597285"
"25647",Switzer,WV,Logan,"37.78599243636089","-81.98742030363238"
"25812",Ansted,WV,Fayette,"38.14045175382165","-81.11512964345638"
"25813",Beaver,WV,Raleigh,"37.783110427957446","-81.09999808399242"
"25843",Ghent,WV,Raleigh,"37.621276772502675","-81.14124959760598"
"25901",Oak Hill,WV,Fayette,"37.93573366276121","-81.1123989413028"
"25908",Princewick,WV,Raleigh,"37.66776731052403","-81.24434980391298"
"25928",Stephenson,WV,Wyoming,"37.55481587631826","-81.34126528917392"
"25972",Leslie,WV,Greenbrier,"38.03574472714238","-80.72221681558987"
"25989",White Oak,WV,Raleigh,"37.6786165785939","-81.04586076569068"
"26143",Elizabeth,WV,Wirt,"39.06337486194705","-81.37640708116189"
"26218",French Creek,WV,Upshur,"38.84504168245536","-80.26797719051446"
"26301",Clarksburg,WV,Harrison,"39.28627499425683","-80.3773852848657"
"26342",Coxs Mills,WV,Gilmer,"39.02481212396996","-80.8469713655739"
"26376",Ireland,WV,Braxton,"38.7756515243415","-80.46866705035616"
"26537",Kingwood,WV,Preston,"39.484553453385004","-79.71187318646493"
"26720",Gormania,WV,Grant,"39.277650193909224","-79.33124062594493"
"26739",Mount Storm,WV,Grant,"39.21505752208655","-79.2647148940264"
"26845",Old Fields,WV,Hardy,"39.16735697114038","-78.96190550941353"
"26884",Seneca Rocks,WV,Pendleton,"38.84272852945238","-79.40118234383343"
"26289",Red Creek,WV,Tucker,"38.98970966892944","-79.51269056779738"
"23662",Poquoson,VA,Poquoson City,"37.13176223335463","-76.35678230320566"
"23841",Dinwiddie,VA,Dinwiddie,"37.05415435128289","-77.55303866525317"
"23889",Warfield,VA,Brunswick,"36.89719615170138","-77.74396897019987"
"24014",Roanoke,VA,Roanoke City,"37.22427736387902","-79.91281596805385"
"24059",Bent Mountain,VA,Roanoke,"37.15575801369687","-80.1316092038552"
"24079",Copper Hill,VA,Floyd,"37.053915176481695","-80.15419914521523"
"24104",Huddleston,VA,Bedford,"37.13546429434453","-79.48772486407384"
"24147",Rich Creek,VA,Giles,"37.40182010205378","-80.82818191625826"
"24219",Big Stone Gap,VA,Wise,"36.848305711313316","-82.74645183531753"
"24244",Duffield,VA,Scott,"36.71077326647291","-82.79783746370286"
"24301",Pulaski,VA,Pulaski,"37.06319492589981","-80.79732585216149"
"24322",Cripple Creek,VA,Wythe,"36.80536972514481","-81.1195035784262"
"24351",Lambsburg,VA,Carroll,"36.58082490986957","-80.76587406104213"
"24421",Churchville,VA,Augusta,"38.26388897197854","-79.20018639716291"
"24487",Williamsville,VA,Bath,"38.201018604176014","-79.5810243231853"
"24527",Blairs,VA,Pittsylvania,"36.7324005611029","-79.34576287641873"
"24563",Hurt,VA,Pittsylvania,"37.06109237495554","-79.27386424444528"
"24571",Lynch Station,VA,Campbell,"37.13669918592981","-79.3798161282389"
"24589",Scottsburg,VA,Halifax,"36.75527468231643","-78.75555841269238"
"24631",Oakwood,VA,Buchanan,"37.220202069716215","-81.99713172503905"
"20155",Gainesville,VA,Prince William,"38.80642225678684","-77.62147590289064"
"22015",Burke,VA,Fairfax,"38.787860748914646","-77.28134913793308"
"22134",Quantico,VA,Prince William,"38.53185886833728","-77.40909163398908"
"22151",Springfield,VA,Fairfax,"38.80283527090308","-77.20960775782078"
"22153",Springfield,VA,Fairfax,"38.74444396374368","-77.23444319716434"
"22182",Vienna,VA,Fairfax,"38.93611204549346","-77.27361222932157"
"22193",Woodbridge,VA,Prince William,"38.64232411754637","-77.34875346393369"
"22205",Arlington,VA,Arlington,"38.88337072692444","-77.13953784922568"
"22304",Alexandria,VA,Alexandria City,"38.81362722462686","-77.11498481681788"
"22454",Dunnsville,VA,Essex,"37.83598289748151","-76.85031572136525"
"22509",Loretto,VA,Essex,"38.106428795361886","-77.06667883271656"
"22654",Star Tannery,VA,Frederick,"39.06864521334816","-78.45858086261104"
"22722",Haywood,VA,Madison,"38.4630518042419","-78.22641503935951"
"22738",Rochelle,VA,Madison,"38.286901735877755","-78.27688424663606"
"22923",Barboursville,VA,Orange,"38.18667228241038","-78.32407237215602"
"22938",Faber,VA,Nelson,"37.8625346893545","-78.78246638729159"
"22959",North Garden,VA,Albemarle,"37.937585316334804","-78.64795046072919"
"23009",Aylett,VA,King William,"37.81039333588652","-77.18718142053585"
"23040",Cumberland,VA,Cumberland,"37.51018287580777","-78.24917949743362"
"23124",New Kent,VA,New Kent,"37.55269089511125","-77.05946242470729"
"23222",Richmond,VA,Richmond City,"37.582660642128985","-77.41893412667335"
"23231",Henrico,VA,Henrico,"37.44219691923075","-77.31902568224704"
"23337",Wallops Island,VA,Accomack,"37.93333704935791","-75.46684617258725"
"23452",Virginia Beach,VA,Virginia Beach City,"36.84605659878755","-76.09198470473653"
"23457",Virginia Beach,VA,Virginia Beach City,"36.616828901275724","-76.01582517516239"
"23518",Norfolk,VA,Norfolk City,"36.91621603577784","-76.21602516809881"
"23666",Hampton,VA,Hampton City,"37.058171826899034","-76.40816417472911"
"23690",Yorktown,VA,York,"37.21829754352553","-76.52371392192887"
"23833",Church Road,VA,Dinwiddie,"37.21092800253857","-77.6694525422178"
"23867",Jarratt,VA,Greensville,"36.82060173011035","-77.48774827159565"
"23887",Valentines,VA,Brunswick,"36.567600510121196","-77.81654980249449"
"23950",La Crosse,VA,Mecklenburg,"36.66008586815403","-78.07698183695001"
"24095",Goodview,VA,Bedford,"37.223056173945444","-79.73788706601052"
"24134",Pearisburg,VA,Giles,"37.24594996776902","-80.779015301195"
"24149",Riner,VA,Montgomery,"37.02278377212624","-80.4342253855722"
"24226",Clinchco,VA,Dickenson,"37.142215778884136","-82.33383916815141"
"24317",Cana,VA,Carroll,"36.60138290151046","-80.66876040067444"
"24401",Staunton,VA,Staunton City,"38.13257888130586","-79.08843963860652"
"24464",Montebello,VA,Nelson,"37.860812402845696","-79.10398165244735"
"24483",Vesuvius,VA,Rockbridge,"37.814845342136515","-79.22561269078747"
"24557",Gretna,VA,Pittsylvania,"36.9665972407203","-79.30402028157937"
"24595",Sweet Briar,VA,Amherst,"37.55903814253362","-79.08418949472663"
"24639",Raven,VA,Tazewell,"37.17361281291513","-81.90465773811067"
"22746",Viewtown,VA,Rappahannock,"38.62922325242609","-78.01952158889333"
"20152",Chantilly,VA,Loudoun,"38.89979941903527","-77.5191758329703"
"20164",Sterling,VA,Loudoun,"39.01242811013756","-77.3958620212665"
"20187",Warrenton,VA,Fauquier,"38.71850283906421","-77.74276516615072"
"20190",Reston,VA,Fairfax,"38.959672031460585","-77.33799275896915"
"22060",Fort Belvoir,VA,Fairfax,"38.70523708269308","-77.15634935547995"
"22308",Alexandria,VA,Fairfax,"38.72960212920632","-77.05876061070458"
"22460",Farnham,VA,Richmond,"37.87611529244075","-76.60691166857013"
"22511",Lottsburg,VA,Northumberland,"37.983794463235","-76.50303809826234"
"22535",Port Royal,VA,Caroline,"38.123154150455086","-77.19618123215385"
"08323",Greenwich,NJ,Cumberland,"39.395648860657246","-75.36600024019495"
"20105",Aldie,VA,Loudoun,"38.959500368972","-77.6083140863622"
"20121",Centreville,VA,Fairfax,"38.817483861570814","-77.46017577750989"
"20171",Herndon,VA,Fairfax,"38.9245924661414","-77.39822545212446"
"20180",Lovettsville,VA,Loudoun,"39.26781943714257","-77.6380630167379"
"22181",Vienna,VA,Fairfax,"38.90526661218979","-77.29466300342531"
"22443",Colonial Beach,VA,Westmoreland,"38.18078324676902","-76.99778040905791"
"08079",Salem,NJ,Salem,"39.54282559393109","-75.4318425091696"
"22627",Flint Hill,VA,Rappahannock,"38.765555752422124","-78.11364076651346"
"22701",Culpeper,VA,Culpeper,"38.44037497993232","-77.99634990760018"
"22734",Remington,VA,Fauquier,"38.52755376182599","-77.811175934932"
"22820",Criders,VA,Rockingham,"38.743887493405666","-79.00947562764281"
"22821",Dayton,VA,Rockingham,"38.46347175789811","-79.07427900747138"
"22834",Linville,VA,Rockingham,"38.557094591975805","-78.85768699866217"
"22841",Mount Crawford,VA,Rockingham,"38.33886251996895","-78.89413069261812"
"22939",Fishersville,VA,Augusta,"38.1057193069115","-78.97287200686779"
"22980",Waynesboro,VA,Waynesboro City,"38.09587230847483","-78.8858451905179"
"23050",Dutton,VA,Mathews,"37.48916128639302","-76.41986747758126"
"23175",Urbanna,VA,Middlesex,"37.65346669893936","-76.62411656443041"
"23219",Richmond,VA,Richmond City,"37.540792458948744","-77.43484179922994"
"23358",Hacksneck,VA,Accomack,"37.64407567143199","-75.86492779200859"
"23418",Onley,VA,Accomack,"37.63828047968366","-75.66931294298722"
"23502",Norfolk,VA,Norfolk City,"36.86275881965453","-76.20981936933379"
"23604",Fort Eustis,VA,Newport News City,"37.131956198199816","-76.58902644217548"
"23692",Yorktown,VA,York,"37.181081036631845","-76.45867983379635"
"23875",Prince George,VA,Prince George,"37.22940568041064","-77.25843213675789"
"23919",Bracey,VA,Mecklenburg,"36.59096507120693","-78.13292308727709"
"24016",Roanoke,VA,Roanoke City,"37.272069686031585","-79.95458619344865"
"24083",Daleville,VA,Botetourt,"37.40608190665568","-79.92033296860633"
"24093",Glen Lyn,VA,Giles,"37.387874013605234","-80.85656426362095"
"24165",Spencer,VA,Henry,"36.58365806867401","-80.05316853968314"
"24220",Birchleaf,VA,Dickenson,"37.119574833848844","-82.22639599394793"
"24237",Dante,VA,Dickenson,"37.039389317927316","-82.26425317860526"
"24279",Pound,VA,Wise,"37.103810301218736","-82.61902018535262"
"24330",Fries,VA,Grayson,"36.723746014389576","-81.02471029784968"
"24352",Laurel Fork,VA,Carroll,"36.71546039997138","-80.53434123624353"
"24411",Augusta Springs,VA,Augusta,"38.1178487501277","-79.33051607323743"
"24473",Rockbridge Baths,VA,Rockbridge,"37.912891007068666","-79.4104927281425"
"24501",Lynchburg,VA,Lynchburg City,"37.35568012649054","-79.1560968091069"
"24620",Hurley,VA,Buchanan,"37.43332039308188","-82.01931012200701"
"20110",Manassas,VA,Manassas City,"38.7463599781236","-77.48699531394283"
"20129",Paeonian Springs,VA,Loudoun,"39.16671776657591","-77.59396118281259"
"20186",Warrenton,VA,Fauquier,"38.69044867684614","-77.84300106228629"
"22031",Fairfax,VA,Fairfax,"38.85954554567152","-77.25990894615043"
"22041",Falls Church,VA,Fairfax,"38.84849681740328","-77.14207469383707"
"22203",Arlington,VA,Arlington,"38.87377716343292","-77.11641778515585"
"22553",Spotsylvania,VA,Spotsylvania,"38.265930280114446","-77.63969792063244"
"22715",Brightwood,VA,Madison,"38.41034387639307","-78.18537125286325"
"22802",Harrisonburg,VA,Rockingham,"38.50017027714391","-78.8584919888247"
"22937",Esmont,VA,Albemarle,"37.81298380777793","-78.6089100146897"
"23002",Amelia Court House,VA,Amelia,"37.34919326099513","-77.96359538338204"
"23027",Cartersville,VA,Cumberland,"37.64551541082426","-78.13183581920225"
"23071",Hartfield,VA,Middlesex,"37.54326916867829","-76.45226236354468"
"23112",Midlothian,VA,Chesterfield,"37.43735668437071","-77.66389634437475"
"23176",Wake,VA,Middlesex,"37.56932172133999","-76.41985105686852"
"23233",Henrico,VA,Henrico,"37.64460531644762","-77.62830206981035"
"23336",Chincoteague Island,VA,Accomack,"37.95461956840526","-75.33754616214651"
"23401",Keller,VA,Accomack,"37.62775759218372","-75.7783500786595"
"23416",Oak Hall,VA,Accomack,"37.93372060163559","-75.55698460633762"
"20002",Washington,DC,District of Columbia,"38.905092522539114","-76.98428974274867"
"20607",Accokeek,MD,Prince George's,"38.67159986358205","-77.02477268600029"
"24738",Nemours,WV,Mercer,"37.303215394230115","-81.32010045809658"
"20004",Washington,DC,District of Columbia,"38.895093322240335","-77.02658381306104"
"20612",Benedict,MD,Charles,"38.50707409940541","-76.67797550309619"
"20618",Bushwood,MD,St Mary's,"38.28148558565734","-76.78893327960785"
"24740",Princeton,WV,Mercer,"37.404225638461625","-81.10202776797213"
"20621",Chaptico,MD,St Mary's,"38.330618245273016","-76.79414720607646"
"20005",Washington,DC,District of Columbia,"38.90443800113264","-77.0315973977801"
"20006",Washington,DC,District of Columbia,"38.898481736739896","-77.04120475198334"
"20616",Bryans Road,MD,Charles,"38.65443854724203","-77.08849779407623"
"19709",Middletown,DE,New Castle,"39.48924233268368","-75.6830625744622"
"20010",Washington,DC,District of Columbia,"38.93250168023389","-77.03131947365834"
"20625",Cobb Island,MD,Charles,"38.2621613001262","-76.84878318872971"
"20628",Dameron,MD,St Mary's,"38.146111866001334","-76.35036359897845"
"20632",Faulkner,MD,Charles,"38.42592483384118","-76.95682810321138"
"24816",Big Sandy,WV,McDowell,"37.46124015467824","-81.7049695846605"
"20636",Hollywood,MD,St Mary's,"38.355808419356556","-76.57209894736293"
"20012",Washington,DC,District of Columbia,"38.97883299052387","-77.03078517051516"
"24828",Davy,WV,McDowell,"37.49971470357058","-81.65529971300211"
"24854",Kopperston,WV,Wyoming,"37.7399768162096","-81.5789000449158"
"19730",Odessa,DE,New Castle,"39.45437298271323","-75.66076429125994"
"20650",Leonardtown,MD,St Mary's,"38.27186799614609","-76.63276136102485"
"24879",Raysal,WV,McDowell,"37.31640925209224","-81.76723932530211"
"24892",War,WV,McDowell,"37.316825508211274","-81.6970242057488"
"20204",Washington,DC,District of Columbia,"38.88555854435649","-77.01442932799804"
"24849",Jesse,WV,Wyoming,"37.6743483023308","-81.55848260013634"
"21117",Owings Mills,MD,Baltimore,"39.427203638504814","-76.77794634723892"
"25666",Breeden,WV,Mingo,"37.920310286073885","-82.29429231917095"
"25670",Delbarton,WV,Mingo,"37.73848273918287","-82.15591451021521"
"25676",Lenore,WV,Mingo,"37.82507682500592","-82.22969852202527"
"24851",Justice,WV,Mingo,"37.59914257697574","-81.83812401408186"
"25646",Stollings,WV,Logan,"37.831842938626586","-81.8934919683082"
"25649",Verdunville,WV,Logan,"37.87161835052865","-82.08482667553848"
"25650",Verner,WV,Mingo,"37.683570948466524","-81.78773439443987"
"25654",Yolyn,WV,Logan,"37.80301185028054","-81.87398447462816"
"25156",Pinch,WV,Kanawha,"38.41180345948137","-81.48219435582557"
"25160",Pond Gap,WV,Kanawha,"38.29886842945907","-81.27316287414452"
"19966",Millsboro,DE,Sussex,"38.581191718358085","-75.28272700677627"
"25161",Powellton,WV,Fayette,"38.06124169994243","-81.31888429992232"
"21104",Marriottsville,MD,Howard,"39.35042190250741","-76.90656418288596"
"25624",Henlawson,WV,Logan,"37.90393659184817","-81.97157565102215"
"25628",Kistler,WV,Logan,"37.76572015504297","-81.86228942053495"
"25632",Lyburn,WV,Logan,"37.76294436784602","-81.93680582998724"
"21113",Odenton,MD,Anne Arundel,"39.05446033229301","-76.71515266960435"
"25638",Omar,WV,Logan,"37.744247865812795","-82.05133358733454"
"20716",Bowie,MD,Prince George's,"38.927346540933236","-76.71494400020171"
"25015",Belle,WV,Kanawha,"38.24293849748514","-81.4922873531153"
"25021",Bim,WV,Boone,"37.91588956989805","-81.68484537577773"
"25162",Pratt,WV,Kanawha,"38.20716015736951","-81.38421802023448"
"25165",Racine,WV,Boone,"38.14904697750403","-81.65312014484451"
"25169",Ridgeview,WV,Boone,"38.12782323989675","-81.76292203687672"
"25173",Robson,WV,Fayette,"38.075172272287396","-81.21895060586134"
"20777",Highland,MD,Howard,"39.174859381790505","-76.96783675258713"
"20794",Jessup,MD,Howard,"39.151054681413356","-76.78880887427715"
"21912",Warwick,MD,Cecil,"39.42486048169886","-75.81600052799395"
"25260",Mason,WV,Mason,"39.01645220894644","-82.02458148339217"
"25262",Millwood,WV,Jackson,"38.90750882608456","-81.83220785955932"
"20817",Bethesda,MD,Montgomery,"38.99808297368972","-77.14921445618265"
"20837",Poolesville,MD,Montgomery,"39.11219372064616","-77.4082016615671"
"20779",Tracys Landing,MD,Anne Arundel,"38.76385309678443","-76.57657516274786"
"25180",Saxon,WV,Raleigh,"37.78963037458598","-81.43316352226016"
"25202",Tornado,WV,Kanawha,"38.315876290279746","-81.85371652932272"
"24873",Paynesville,WV,McDowell,"37.357343121737216","-81.87403237804713"
"24830",Elbert,WV,McDowell,"37.334017195924886","-81.55798218661076"
"24831",Elkhorn,WV,McDowell,"37.38942788474556","-81.44082446769308"
"24834",Fanrock,WV,Wyoming,"37.54319993674313","-81.66085348218292"
"20015",Washington,DC,District of Columbia,"38.96664364230646","-77.0583258349428"
"24843",Hensley,WV,McDowell,"37.4837847069467","-81.7092293201062"
"19936",Cheswold,DE,Kent,"39.218634775709845","-75.58511417222071"
"25028",Bob White,WV,Boone,"37.95598177988656","-81.72544761041281"
"25241",Evans,WV,Jackson,"38.7843045471217","-81.80802288289034"
"25265",New Haven,WV,Mason,"38.981281591418224","-81.97357178602465"
"20833",Brookeville,MD,Montgomery,"39.205958437822915","-77.0555507974964"
"25174",Rock Creek,WV,Raleigh,"37.86114128555936","-81.41375846055887"
"20774",Upper Marlboro,MD,Prince George's,"38.87589583363717","-76.76923378098107"
"24846",Isaban,WV,Mingo,"37.526118314011995","-81.89168155721906"
"24847",Itmann,WV,Wyoming,"37.57343589480852","-81.41445397956828"
"24848",Jenkinjones,WV,McDowell,"37.282185223673096","-81.43400264239341"
"24853",Kimball,WV,McDowell,"37.429210985584334","-81.51691017446761"
"20017",Washington,DC,District of Columbia,"38.938154306521746","-76.99290889576402"
"24860",Matheny,WV,Wyoming,"37.65924214280888","-81.59079607762831"
"25033",Buffalo,WV,Putnam,"38.61093631150051","-81.92510999385627"
"20776",Harwood,MD,Anne Arundel,"38.86912754599602","-76.60664636039608"
"20778",West River,MD,Anne Arundel,"38.83736146028103","-76.56644262172689"
"25177",Saint Albans,WV,Kanawha,"38.36924122804155","-81.85017570848065"
"25181",Seth,WV,Boone,"38.04969249483366","-81.63475996209768"
"25183",Sharples,WV,Logan,"37.907402744466225","-81.79743857601318"
"21009",Abingdon,MD,Harford,"39.47017900512233","-76.29252512433061"
"25422",Great Cacapon,WV,Morgan,"39.55806417742143","-78.35889901539433"
"25425",Harpers Ferry,WV,Jefferson,"39.276325574887395","-77.7917511006"
"21035",Davidsonville,MD,Anne Arundel,"38.93634536145959","-76.63875599720673"
"24862",Mohawk,WV,McDowell,"37.479026666176956","-81.9488866401309"
"24867",New Richmond,WV,Wyoming,"37.604360785645845","-81.45259522894246"
"20019",Washington,DC,District of Columbia,"38.89211485153472","-76.94198603127109"
"24874",Pineville,WV,Wyoming,"37.60199738496023","-81.53070153119384"
"24880",Rock View,WV,Wyoming,"37.64676139830386","-81.53191853181673"
"20722",Brentwood,MD,Prince George's,"38.935083044392265","-76.9494406293919"
"25035",Cabin Creek,WV,Kanawha,"38.16338622248075","-81.52398961943518"
"19939",Dagsboro,DE,Sussex,"38.565748365172006","-75.20223332617134"
"25039",Cedar Grove,WV,Kanawha,"38.24639917559646","-81.36532834958913"
"20724",Laurel,MD,Anne Arundel,"39.08027010799948","-76.79055724372981"
"25043",Clay,WV,Clay,"38.44093506384703","-80.989839986076"
"25186",Smithers,WV,Fayette,"38.171170001422716","-81.29810389254544"
"25442",Shenandoah Junction,WV,Jefferson,"39.37154987029254","-77.83179507416489"
"25444",Slanesville,WV,Hampshire,"39.435540101467524","-78.5207710259955"
"25502",Apple Grove,WV,Mason,"38.66499786031696","-82.11021946182882"
"25506",Branchland,WV,Lincoln,"38.20825107675868","-82.18666436364887"
"21044",Columbia,MD,Howard,"39.210487125337266","-76.88356243868915"
"21057",Glen Arm,MD,Baltimore,"39.451141850370504","-76.50605121142992"
"21030",Cockeysville,MD,Baltimore,"39.49002426033483","-76.66589546032313"
"25501",Alkol,WV,Lincoln,"38.16035714086745","-81.95583128921409"
"21010",Gunpowder,MD,Harford,"39.38977283453844","-76.29895309435365"
"24881",Roderfield,WV,McDowell,"37.444307366181285","-81.6878968013625"
"24882",Simon,WV,Wyoming,"37.62771933254375","-81.76624779119558"
"20653",Lexington Park,MD,St Mary's,"38.227928016863885","-76.431401178938"
"24887",Switchback,WV,McDowell,"37.37804112391531","-81.38660186864657"
"20020",Washington,DC,District of Columbia,"38.86236180037205","-76.97444244639829"
"24898",Wyoming,WV,Wyoming,"37.587475857377","-81.57517440853294"
"20024",Washington,DC,District of Columbia,"38.87524067945074","-77.02947758387035"
"20658",Marbury,MD,Charles,"38.569691376300796","-77.15953340654097"
"24901",Lewisburg,WV,Greenbrier,"37.852949829316024","-80.47598426223875"
"25044",Clear Creek,WV,Raleigh,"37.91136751303986","-81.32116626378858"
"25047",Clothier,WV,Logan,"37.92195447944243","-81.76026181253967"
"19945",Frankford,DE,Sussex,"38.50336612830578","-75.22847988561021"
"25193",Sylvester,WV,Boone,"38.016778401279254","-81.5509249371478"
"20782",Hyattsville,MD,Prince George's,"38.9646985269487","-76.9648505698892"
"25201",Tad,WV,Kanawha,"38.34895935845883","-81.48644775710278"
"25203",Turtle Creek,WV,Boone,"38.02123916952044","-81.88162773953773"
"20783",Hyattsville,MD,Prince George's,"38.9998447231766","-76.96887879480396"
"25411",Berkeley Springs,WV,Morgan,"39.55495789402019","-78.22004198363994"
"21012",Arnold,MD,Anne Arundel,"39.04532302062935","-76.49717904825144"
"25413",Bunker Hill,WV,Berkeley,"39.31629220370053","-78.05295507022743"
"20036",Washington,DC,District of Columbia,"38.907033560264296","-77.04167736842811"
"20045",Washington,DC,District of Columbia,"38.896731457868285","-77.03079777947481"
"20052",Washington,DC,District of Columbia,"38.898789508759705","-77.047786969551"
"20057",Washington,DC,District of Columbia,"38.908971295707175","-77.07517146097724"
"25051",Costa,WV,Boone,"38.15906392965613","-81.70918443112039"
"20736",Owings,MD,Calvert,"38.69126476411378","-76.62858474290466"
"25057",Deep Water,WV,Fayette,"38.10776124929073","-81.23780780376576"
"20737",Riverdale,MD,Prince George's,"38.96243626227818","-76.91569082993611"
"25059",Dixie,WV,Nicholas,"38.254231079158416","-81.2152089209761"
"25060",Dorothy,WV,Raleigh,"37.97060833330208","-81.4729648702706"
"25061",Drybranch,WV,Kanawha,"38.17509809703781","-81.43341844666202"
"25208",Wharton,WV,Boone,"37.845795929142895","-81.64283206649556"
"25209",Whitesville,WV,Boone,"37.96274536771669","-81.52863852069862"
"25211",Widen,WV,Clay,"38.46106873213712","-80.87936487085943"
"20784",Hyattsville,MD,Prince George's,"38.95145386206366","-76.89029264754016"
"19973",Seaford,DE,Sussex,"38.63406948776194","-75.6245331560146"
"25213",Winfield,WV,Putnam,"38.507778324174446","-81.91797379714045"
"25414",Charles Town,WV,Jefferson,"39.25272602573583","-77.87053627136734"
"20064",Washington,DC,District of Columbia,"38.93637152669398","-76.99920973151565"
"20230",Washington,DC,District of Columbia,"38.89374374893637","-77.03567259901895"
"20240",Washington,DC,District of Columbia,"38.89445630041632","-77.04260465126502"
"20245",Washington,DC,District of Columbia,"38.893582992059365","-77.04504012140795"
"20317",Washington,DC,District of Columbia,"38.936406507843685","-77.01278183593743"
"25062",Dry Creek,WV,Raleigh,"37.87547841173539","-81.44412516421613"
"25063",Duck,WV,Clay,"38.57760719112487","-80.92568926213538"
"20812",Glen Echo,MD,Montgomery,"38.96689267358146","-77.14366741468322"
"25245",Given,WV,Jackson,"38.699179944073244","-81.73931208125443"
"25247",Hartford,WV,Mason,"39.0009323970891","-81.98989387621857"
"20427",Washington,DC,District of Columbia,"38.902057461462405","-77.04755800718209"
"20535",Washington,DC,District of Columbia,"38.8951356684894","-77.02493294123462"
"20678",Prince Frederick,MD,Calvert,"38.521722931955885","-76.600652631972"
"20688",Solomons,MD,Calvert,"38.33478009287366","-76.46965700296899"
"20707",Laurel,MD,Prince George's,"39.09563360769448","-76.884219714544"
"24918",Ballard,WV,Monroe,"37.51794033637951","-80.75461199813492"
"20693",Welcome,MD,Charles,"38.45925808253008","-77.08934091412709"
"20319",Washington,DC,District of Columbia,"38.86694684916719","-77.01696539767995"
"20660",Morganza,MD,St Mary's,"38.36930013874768","-76.7073101419357"
"20742",College Park,MD,Prince George's,"38.99418329169784","-76.94344033895332"
"19950",Greenwood,DE,Sussex,"38.82005557063715","-75.5969972097889"
"25064",Dunbar,WV,Kanawha,"38.376292670839575","-81.74763561244603"
"25070",Eleanor,WV,Putnam,"38.546658343770666","-81.93177587611186"
"19954",Houston,DE,Kent,"38.898899510593715","-75.52092243056077"
"25075",Eskdale,WV,Kanawha,"38.05255869514787","-81.42912795672058"
"19958",Lewes,DE,Sussex,"38.72736480044411","-75.16635154517637"
"19964",Marydel,DE,Kent,"39.09430804202021","-75.72435049634889"
"20815",Chevy Chase,MD,Montgomery,"38.98365647832293","-77.07852123827917"
"19977",Smyrna,DE,Kent,"39.296451980393925","-75.55113348988243"
"25253",Letart,WV,Mason,"38.91946846557382","-81.9668526238137"
"25259",Looneyville,WV,Roane,"38.67467295852765","-81.24833578887525"
"25264",Mount Alto,WV,Jackson,"38.85546940001078","-81.89518838628797"
"25266",Newton,WV,Roane,"38.60224479494722","-81.15889667625216"
"25268",Orma,WV,Calhoun,"38.73969408539711","-81.10699906621754"
"20832",Olney,MD,Montgomery,"39.1513385871655","-77.07332330912438"
"25270",Reedy,WV,Roane,"38.88172026094012","-81.43396086255855"
"20841",Boyds,MD,Montgomery,"39.185769716845165","-77.32580177868064"
"21036",Dayton,MD,Howard,"39.23417842663036","-77.00221705057864"
"25428",Inwood,WV,Berkeley,"39.37405256044371","-78.02730942971945"
"20373",Naval Anacost Annex,DC,District of Columbia,"38.85780286883833","-77.01051165397723"
"20390",Washington,DC,District of Columbia,"38.87901906867056","-76.9936954921427"
"20510",Washington,DC,District of Columbia,"38.89278014634194","-77.00689002991419"
"20520",Washington,DC,District of Columbia,"38.89470007749126","-77.04848092191912"
"20540",Washington,DC,District of Columbia,"38.887929223965024","-77.0047134912338"
"20560",Washington,DC,District of Columbia,"38.89012565960127","-77.02724487530186"
"25133",Maysel,WV,Clay,"38.47976206611007","-81.118312994102"
"25143",Nitro,WV,Kanawha,"38.42001087064094","-81.82416395567286"
"25149",Ottawa,WV,Boone,"37.955774584963024","-81.77445427899671"
"25152",Page,WV,Fayette,"38.04109539862523","-81.24001415810672"
"25154",Peytona,WV,Boone,"38.11575882787137","-81.70247222350093"
"19968",Milton,DE,Sussex,"38.77554551208057","-75.28469209859738"
"25082",Fraziers Bottom,WV,Putnam,"38.60862971978687","-82.02878056170202"
"20751",Deale,MD,Anne Arundel,"38.795570436214895","-76.56226512758549"
"25076",Ethel,WV,Logan,"37.86891974072739","-81.93701170824114"
"25107",Hernshaw,WV,Kanawha,"38.22429729668253","-81.64493374356883"
"25110",Hugheston,WV,Kanawha,"38.213228440674285","-81.32641089496515"
"20747",District Heights,MD,Prince George's,"38.8534672368688","-76.88382897385654"
"20769",Glenn Dale,MD,Prince George's,"38.98814885697157","-76.81634669869096"
"25168",Red House,WV,Putnam,"38.563928363791696","-81.8773273803785"
"19953",Hartly,DE,Kent,"39.15139387197257","-75.6968429428648"
"19955",Kenton,DE,Kent,"39.22660003068795","-75.66549327889898"
"25106",Henderson,WV,Mason,"38.776038700984905","-82.08244132438733"
"25111",Indore,WV,Clay,"38.348392414804486","-81.12588554632048"
"20838",Barnesville,MD,Montgomery,"39.22338751489331","-77.37217187470964"
"20842",Dickerson,MD,Montgomery,"39.20823137734033","-77.42492120814387"
"25271",Ripley,WV,Jackson,"38.7884311015021","-81.6862505146897"
"25285",Wallback,WV,Clay,"38.547261891906054","-81.11288919731113"
"20855",Derwood,MD,Montgomery,"39.13700056567222","-77.13193245925125"
"25431",Levels,WV,Hampshire,"39.48685991699609","-78.57279918897028"
"20565",Washington,DC,District of Columbia,"38.890129875444345","-77.01948656463021"
"20662",Nanjemoy,MD,Charles,"38.433680695675264","-77.19978519707212"
"24910",Alderson,WV,Monroe,"37.741738077526975","-80.66836208252815"
"24915",Arbovale,WV,Pocahontas,"38.469295131676766","-79.78667286368163"
"20667",Park Hall,MD,St Mary's,"38.2178224691559","-76.44538581193656"
"20670",Patuxent River,MD,St Mary's,"38.28238842118794","-76.4203490726136"
"20675",Pomfret,MD,Charles,"38.58348185086107","-77.01523221492013"
"24920",Bartow,WV,Pocahontas,"38.58919356905783","-79.71723458656517"
"20744",Fort Washington,MD,Prince George's,"38.75366297546017","-76.98391829351631"
"25071",Elkview,WV,Kanawha,"38.47728435429058","-81.46751445598458"
"25083",Gallagher,WV,Kanawha,"38.06818345983669","-81.36120221955656"
"25086",Glasgow,WV,Kanawha,"38.213333722057676","-81.41267981838105"
"25088",Glen,WV,Clay,"38.37966879654383","-81.21548449769847"
"20868",Spencerville,MD,Montgomery,"39.125405506854364","-76.9683573461312"
"20871",Clarksburg,MD,Montgomery,"39.259196200613246","-77.28190011791105"
"20905",Silver Spring,MD,Montgomery,"39.1105043306345","-76.9903894286055"
"25403",Martinsburg,WV,Berkeley,"39.48415172116831","-78.00728669032326"
"20912",Takoma Park,MD,Montgomery,"38.98187042478357","-77.00102734572599"
"20866",Burtonsville,MD,Montgomery,"39.109672989964245","-76.93409509408264"
"20878",Gaithersburg,MD,Montgomery,"39.11375950980708","-77.24780452784178"
"20901",Silver Spring,MD,Montgomery,"39.02148219529229","-77.00921318301809"
"25275",Sandyville,WV,Jackson,"38.92448189922853","-81.61686468034469"
"20850",Rockville,MD,Montgomery,"39.090800184972785","-77.18091771580094"
"20851",Rockville,MD,Montgomery,"39.0776375719088","-77.12089475332137"
"25286",Walton,WV,Roane,"38.62098750648967","-81.39728987401412"
"25432",Millville,WV,Jefferson,"39.29544665049629","-77.78680258802042"
"25437",Points,WV,Hampshire,"39.42251949904502","-78.57621800898467"
"25438",Ranson,WV,Jefferson,"39.318549694668675","-77.86444831178389"
"25443",Shepherdstown,WV,Jefferson,"39.43823593243615","-77.81469737521464"
"21043",Ellicott City,MD,Howard,"39.25758595216353","-76.79774559722442"
"24927",Cass,WV,Pocahontas,"38.38999436940218","-79.96500788596212"
"24931",Crawley,WV,Greenbrier,"37.91469505272169","-80.59356753658649"
"24934",Dunmore,WV,Pocahontas,"38.328366303291034","-79.89265846168571"
"20686",Saint Marys City,MD,St. Mary's,"38.18540311655297","-76.4389686906771"
"25090",Glen Ferris,WV,Fayette,"38.1554137081872","-81.2165007163466"
"25102",Handley,WV,Kanawha,"38.16734202617857","-81.35190816622053"
"20746",Suitland,MD,Prince George's,"38.836650987993785","-76.91936723209514"
"25108",Hewett,WV,Boone,"37.965494437766296","-81.87290912466108"
"25109",Hometown,WV,Putnam,"38.53090681851782","-81.86052604986969"
"25287",West Columbia,WV,Mason,"38.96155497266594","-82.04838341730515"
"25504",Barboursville,WV,Cabell,"38.372981062091995","-82.26673329564855"
"25505",Big Creek,WV,Logan,"38.01968540038187","-82.03075386347284"
"21045",Columbia,MD,Howard,"39.206211807941024","-76.82745853939228"
"25510",Culloden,WV,Cabell,"38.38836504736425","-82.06599093331751"
"25512",East Lynn,WV,Wayne,"38.1778658963661","-82.32059292222314"
"24946",Hillsboro,WV,Pocahontas,"38.17893886619369","-80.26711919181861"
"20689",Sunderland,MD,Calvert,"38.66962194974192","-76.58594123402577"
"24951",Lindside,WV,Monroe,"37.48357221679327","-80.63101632352628"
"20695",White Plains,MD,Charles,"38.58885242148289","-76.97267244646244"
"20701",Annapolis Junction,MD,Anne Arundel,"39.128753369962695","-76.78794498028881"
"24954",Marlinton,WV,Pocahontas,"38.22931979202377","-80.07431664496151"
"24962",Pence Springs,WV,Summers,"37.66031010080747","-80.72036109410138"
"25112",Institute,WV,Kanawha,"38.381037449490634","-81.76629525870729"
"25119",Kincaid,WV,Fayette,"38.03361408039269","-81.2749214361337"
"25121",Lake,WV,Logan,"37.911638320402794","-81.8778635433408"
"19962",Magnolia,DE,Kent,"39.07006240665622","-75.49753622504105"
"20748",Temple Hills,MD,Prince George's,"38.81695120091083","-76.94127157331104"
"25124",Liberty,WV,Putnam,"38.62006038568582","-81.76535794380595"
"25301",Charleston,WV,Kanawha,"38.351226081570005","-81.62760166271659"
"20854",Potomac,MD,Montgomery,"39.034090364259875","-77.221440386866"
"25514",Fort Gay,WV,Wayne,"38.0813831967363","-82.51674500714145"
"21048",Finksburg,MD,Carroll,"39.495707330285924","-76.91055895039193"
"25515",Gallipolis Ferry,WV,Mason,"38.75726282771201","-82.15263901816347"
"25517",Genoa,WV,Wayne,"38.10983842527586","-82.45366928548145"
"25520",Glenwood,WV,Mason,"38.55771066313812","-82.1790079414333"
"21052",Fort Howard,MD,Baltimore,"39.20454820685022","-76.44053547956742"
"21056",Gibson Island,MD,Anne Arundel,"39.07819114871554","-76.43384723315114"
"21060",Glen Burnie,MD,Anne Arundel,"39.16890359784947","-76.58346115359768"
"25545",Ona,WV,Cabell,"38.45846679209926","-82.224572105399"
"25601",Logan,WV,Logan,"37.86261248662941","-82.00259896990467"
"25621",Gilbert,WV,Mingo,"37.63149575626059","-81.89645544956201"
"25630",Lorado,WV,Logan,"37.798207663509906","-81.6816011892985"
"25651",Wharncliffe,WV,Mingo,"37.57141071918715","-81.9662165657626"
"25674",Kermit,WV,Mingo,"37.87107917429647","-82.3467046943205"
"25537",Lesage,WV,Cabell,"38.53393474338412","-82.26923128645198"
"20706",Lanham,MD,Prince George's,"38.96547366779632","-76.85091058875652"
"24974",Secondcreek,WV,Monroe,"37.653973122621835","-80.44691170715457"
"24976",Sinks Grove,WV,Monroe,"37.6651241441856","-80.52277415281206"
"24977",Smoot,WV,Greenbrier,"37.90825677151465","-80.67529720059756"
"24983",Union,WV,Monroe,"37.5916408205141","-80.51673283547149"
"19902",Dover Afb,DE,Kent,"39.12765639631304","-75.46691267525689"
"20861",Ashton,MD,Montgomery,"39.14650577956698","-76.9988517919271"
"20872",Damascus,MD,Montgomery,"39.29142915272092","-77.21621459531669"
"20874",Germantown,MD,Montgomery,"39.12902160467146","-77.29724436135024"
"20876",Germantown,MD,Montgomery,"39.20708039944278","-77.23283623340035"
"25304",Charleston,WV,Kanawha,"38.30522865046199","-81.59043800899079"
"25305",Charleston,WV,Kanawha,"38.33681918354058","-81.61313920547767"
"20877",Gaithersburg,MD,Montgomery,"39.14071185971587","-77.18864062687942"
"20879",Gaithersburg,MD,Montgomery,"39.16992356318191","-77.17400094446188"
"20880",Washington Grove,MD,Montgomery,"39.14078272007701","-77.17446356672342"
"20882",Gaithersburg,MD,Montgomery,"39.23182054815648","-77.14518945522164"
"20886",Montgomery Village,MD,Montgomery,"39.179516410656646","-77.19714710147099"
"25311",Charleston,WV,Kanawha,"38.36307363315236","-81.55358837072306"
"25607",Amherstdale,WV,Logan,"37.78125341922612","-81.77078199413941"
"25634",Mallory,WV,Logan,"37.73014767322653","-81.82468212058171"
"25524",Harts,WV,Lincoln,"38.013073761029865","-82.11713839623769"
"21061",Glen Burnie,MD,Anne Arundel,"39.16117779563939","-76.63220810895722"
"25678",Matewan,WV,Mingo,"37.59555091573137","-82.08202362809871"
"24984",Waiteville,WV,Monroe,"37.48940140973652","-80.4175144988433"
"20708",Laurel,MD,Prince George's,"39.0454125779329","-76.83455755358831"
"20710",Bladensburg,MD,Prince George's,"38.94199984576506","-76.9262463658414"
"20714",North Beach,MD,Calvert,"38.71797252304229","-76.53977122824604"
"19934",Camden Wyoming,DE,Kent,"39.08132637588854","-75.63110672639003"
"25036",Cannelton,WV,Fayette,"38.19175480518654","-81.2643667657814"
"19940",Delmar,DE,Sussex,"38.4772111251368","-75.56823196528656"
"20735",Clinton,MD,Prince George's,"38.7503078173431","-76.90566237210177"
"19947",Georgetown,DE,Sussex,"38.67419486703859","-75.39866357963801"
"25067",East Bank,WV,Kanawha,"38.20970984970585","-81.44027732840915"
"19952",Harrington,DE,Kent,"38.91653489652182","-75.6253597285614"
"25025",Blount,WV,Kanawha,"38.29378863140799","-81.40180405667056"
"25053",Danville,WV,Boone,"38.04726918059616","-81.87631332086647"
"25054",Dawes,WV,Kanawha,"38.12229478025074","-81.45044590099027"
"20720",Bowie,MD,Prince George's,"38.99705659783873","-76.78584452873926"
"20758",Friendship,MD,Anne Arundel,"38.7340029261569","-76.58963662552941"
"25130",Madison,WV,Boone,"38.02773643154875","-81.7454667130019"
"20762",Andrews Air Force Base,MD,Prince George's,"38.807447732719844","-76.87462757276131"
"25139",Mount Carbon,WV,Fayette,"38.1103447713702","-81.28739854096098"
"20896",Garrett Park,MD,Montgomery,"39.035251830830866","-77.09504417566859"
"20899",Gaithersburg,MD,Montgomery,"39.14439974448744","-77.21617526960742"
"25312",Charleston,WV,Kanawha,"38.46158925232813","-81.65600391554531"
"25313",Charleston,WV,Kanawha,"38.4154756009216","-81.7570192611854"
"20902",Silver Spring,MD,Montgomery,"39.043824809664365","-77.0420961010602"
"20903",Silver Spring,MD,Montgomery,"39.02134064718813","-76.98208520602574"
"25320",Charleston,WV,Kanawha,"38.54123844897241","-81.62698768286498"
"25404",Martinsburg,WV,Berkeley,"39.48634278848417","-77.89778248751607"
"21001",Aberdeen,MD,Harford,"39.51076609033628","-76.202763178868"
"25530",Kenova,WV,Wayne,"38.35634315074107","-82.56325939266128"
"25535",Lavalette,WV,Wayne,"38.30774376966891","-82.4340533864903"
"25547",Pecks Mill,WV,Logan,"37.92629884955719","-81.95369183281433"
"21076",Hanover,MD,Anne Arundel,"39.168547140519586","-76.72238494064727"
"25555",Prichard,WV,Wayne,"38.235360536578824","-82.559182114528"
"25557",Ranger,WV,Lincoln,"38.09923571115851","-82.16265146118015"
"25022",Blair,WV,Logan,"37.84158560930726","-81.79239221046012"
"19941",Ellendale,DE,Sussex,"38.79490369890206","-75.42476914268316"
"20711",Lothian,MD,Anne Arundel,"38.80485808233434","-76.65242477976714"
"20712",Mount Rainier,MD,Prince George's,"38.94300418602114","-76.96511974358455"
"19904",Dover,DE,Kent,"39.17294393991287","-75.59515530754749"
"24986",White Sulphur Springs,WV,Greenbrier,"37.91185307656103","-80.1945600980362"
"24991",Williamsburg,WV,Greenbrier,"38.00701680888872","-80.48971649601818"
"25002",Alloy,WV,Fayette,"38.130879215837915","-81.25472414307393"
"25003",Alum Creek,WV,Lincoln,"38.251004405452","-81.77925770089797"
"20715",Bowie,MD,Prince George's,"38.986441012773675","-76.73966056110014"
"20764",Shady Side,MD,Anne Arundel,"38.83373293279699","-76.5114601480307"
"25405",Martinsburg,WV,Berkeley,"39.40892218481235","-77.9623604903253"
"21077",Harmans,MD,Anne Arundel,"39.15836555271701","-76.69953830788997"
"25559",Salt Rock,WV,Cabell,"38.3275211864061","-82.2318301777115"
"21085",Joppa,MD,Harford,"39.44462577336477","-76.35600256700482"
"25560",Scott Depot,WV,Putnam,"38.44737079258407","-81.89906190564574"
"25565",Spurlockville,WV,Lincoln,"38.1099883070568","-81.96627389220566"
"21090",Linthicum Heights,MD,Anne Arundel,"39.209186927921394","-76.66797276608732"
"25570",Wayne,WV,Wayne,"38.23507232775167","-82.41929905932794"
"25571",West Hamlin,WV,Lincoln,"38.29468788334591","-82.15631582305032"
"25573",Yawkey,WV,Lincoln,"38.227296568803126","-81.94546670883693"
"25617",Davin,WV,Logan,"37.745514798260075","-81.80270191819879"
"25005",Amma,WV,Roane,"38.581988551334895","-81.26983033464549"
"19931",Bethel,DE,Sussex,"38.56929770430677","-75.61045136014802"
"25011",Bancroft,WV,Putnam,"38.51169895045355","-81.83633636213368"
"20765",Galesville,MD,Anne Arundel,"38.84534317170029","-76.5465305431833"
"25141",Nebo,WV,Clay,"38.630499218515226","-81.03593447508935"
"25142",Nellis,WV,Boone,"38.15003411663949","-81.73062386195546"
"25148",Orgas,WV,Boone,"38.03510905220601","-81.53693863210297"
"21286",Towson,MD,Baltimore,"39.41372594064634","-76.57374229512429"
"21409",Annapolis,MD,Anne Arundel,"39.01966427586944","-76.44743162695313"
"26202",Fenwick,WV,Nicholas,"38.2265915421758","-80.62642477549882"
"26203",Erbacon,WV,Webster,"38.5313582226659","-80.60148913328158"
"26241",Elkins,WV,Randolph,"38.916271425398705","-79.79224878552391"
"26263",Dryfork,WV,Randolph,"38.957045742663404","-79.43582043918634"
"26269",Hambleton,WV,Tucker,"39.11610190548621","-79.61617225416055"
"26266",Upperglade,WV,Webster,"38.43406101088638","-80.5021282482091"
"21401",Annapolis,MD,Anne Arundel,"38.98969317004247","-76.55051633712908"
"26205",Craigsville,WV,Nicholas,"38.32079452834527","-80.64826088614205"
"21239",Baltimore,MD,Baltimore City,"39.365163578247866","-76.58709942730142"
"21240",Baltimore,MD,Anne Arundel,"39.17482760723486","-76.6718016213483"
"21856",Quantico,MD,Wicomico,"38.3380456956249","-75.79229433185257"
"21866",Tylerton,MD,Somerset,"37.96712753299597","-76.02136546744221"
"21867",Upper Fairmount,MD,Somerset,"38.110275760353346","-75.79397263826151"
"25810",Allen Junction,WV,Wyoming,"37.5835800797066","-81.34973452080149"
"26170",Saint Marys,WV,Pleasants,"39.361358220801414","-81.17139046923654"
"21634",Fishing Creek,MD,Dorchester,"38.28178893871739","-76.18629618714077"
"21635",Galena,MD,Kent,"39.34006133661119","-75.83825201871997"
"21636",Goldsboro,MD,Caroline,"39.026116183825295","-75.79841585043681"
"26354",Grafton,WV,Taylor,"39.3484721008002","-80.02865787474302"
"26361",Gypsy,WV,Harrison,"39.36511762302045","-80.31773939159854"
"21640",Henderson,MD,Caroline,"39.070318591737234","-75.82538198459632"
"21641",Hillsboro,MD,Caroline,"38.91704255387933","-75.9417789208052"
"21244",Windsor Mill,MD,Baltimore,"39.33417960647547","-76.78211798584479"
"21250",Baltimore,MD,Baltimore,"39.255610540062634","-76.71117929052754"
"21251",Baltimore,MD,Baltimore City,"39.34992172561947","-76.5802310053076"
"21252",Towson,MD,Baltimore,"39.3941157578224","-76.61138266510959"
"26178",Smithville,WV,Ritchie,"39.06001003083377","-81.02891517306698"
"25818",Bradley,WV,Raleigh,"37.86065854433989","-81.19256497831556"
"25820",Camp Creek,WV,Mercer,"37.50811931303215","-81.1354731413783"
"25823",Coal City,WV,Raleigh,"37.666276734452566","-81.18230616085025"
"25825",Cool Ridge,WV,Raleigh,"37.6474011007168","-81.08855078528484"
"26366",Haywood,WV,Harrison,"39.38265502751088","-80.33478171986415"
"26372",Horner,WV,Lewis,"38.95858146803244","-80.37156108011301"
"21643",Hurlock,MD,Dorchester,"38.64420580290574","-75.87124685439154"
"21648",Madison,MD,Dorchester,"38.49870006727934","-76.23254667880279"
"21652",Neavitt,MD,Talbot,"38.720377505081814","-76.28152724262583"
"26412",Orlando,WV,Lewis,"38.89162861142729","-80.59458496085307"
"21669",Taylors Island,MD,Dorchester,"38.45909455392538","-76.28498749435444"
"21675",Wingate,MD,Dorchester,"38.29012614586672","-76.08831262902461"
"26431",Shinnston,WV,Harrison,"39.391456295455775","-80.28088440262889"
"21677",Woolford,MD,Dorchester,"38.48284010697488","-76.18383480807891"
"21679",Wye Mills,MD,Talbot,"38.91718714269485","-76.08875912395727"
"26456",West Union,WV,Doddridge,"39.2808080291962","-80.77353130957194"
"21713",Boonsboro,MD,Washington,"39.526187675190656","-77.66927863648814"
"26404",Meadowbrook,WV,Harrison,"39.346385143985785","-80.30992096473891"
"26405",Moatsville,WV,Barbour,"39.23094425992394","-79.89077604107382"
"26181",Washington,WV,Wood,"39.20705855344864","-81.67317793384404"
"26187",Williamstown,WV,Wood,"39.367103868685724","-81.44892695365247"
"21403",Annapolis,MD,Anne Arundel,"38.94433185023006","-76.4929728962275"
"21405",Annapolis,MD,Anne Arundel,"39.029931537122394","-76.54963038165589"
"26201",Buckhannon,WV,Upshur,"39.00082279680446","-80.20249262858627"
"08038",Hancocks Bridge,NJ,Salem,"39.47391787508853","-75.48853003989315"
"25826",Corinne,WV,Wyoming,"37.57284781166712","-81.36572170183507"
"25827",Crab Orchard,WV,Raleigh,"37.73867329949611","-81.25367030999793"
"21163",Woodstock,MD,Howard,"39.34025970665935","-76.85703891705639"
"25832",Daniels,WV,Raleigh,"37.7264335962467","-81.10489973946889"
"25836",Eccles,WV,Raleigh,"37.78689087221557","-81.27810008874467"
"21201",Baltimore,MD,Baltimore City,"39.29496155643515","-76.62234116694948"
"25841",Flat Top,WV,Mercer,"37.55322886212824","-81.09061494950022"
"21645",Kennedyville,MD,Kent,"39.31981089407552","-75.96217931670004"
"21647",Mcdaniel,MD,Talbot,"38.80112769241576","-76.28301335440932"
"26378",Jane Lew,WV,Lewis,"39.1226370286858","-80.4476605164376"
"21650",Massey,MD,Kent,"39.31289211400043","-75.80796875865039"
"26385",Lost Creek,WV,Harrison,"39.1589633414782","-80.35174742530235"
"21651",Millington,MD,Queen Anne's,"39.258226626050444","-75.8580296404155"
"21654",Oxford,MD,Talbot,"38.68890078849781","-76.12551100347497"
"26408",Mount Clare,WV,Harrison,"39.20312352535707","-80.28970860284788"
"21655",Preston,MD,Caroline,"38.74599410229793","-75.921046381858"
"21657",Queen Anne,MD,Queen Anne's,"38.95340151758979","-75.9903589523845"
"26206",Cowen,WV,Webster,"38.37000691701479","-80.47855100741783"
"26209",Snowshoe,WV,Pocahontas,"38.39399215641722","-80.04438160949213"
"26215",Cleveland,WV,Upshur,"38.719274443013475","-80.37900617561291"
"26217",Diana,WV,Webster,"38.60836829832096","-80.45896414149823"
"26228",Kanawha Head,WV,Upshur,"38.754356464037905","-80.370543076514"
"26230",Pickens,WV,Randolph,"38.64370745381181","-80.18883958727598"
"25849",Glen White,WV,Raleigh,"37.731725614379236","-81.27800714224232"
"21204",Towson,MD,Baltimore,"39.40352866935466","-76.63030395864142"
"25854",Hico,WV,Fayette,"38.126269003662635","-80.9753912574034"
"26411",New Milton,WV,Doddridge,"39.18077263681796","-80.70723567619406"
"21658",Queenstown,MD,Queen Anne's,"38.94293647364728","-76.13710868997465"
"26415",Pennsboro,WV,Ritchie,"39.2980735370917","-80.93499747615263"
"21660",Ridgely,MD,Caroline,"38.95534736389474","-75.88837010541293"
"21662",Royal Oak,MD,Talbot,"38.713835209871114","-76.2021969789595"
"26421",Pullman,WV,Ritchie,"39.1841256969574","-80.91607613136317"
"26424",Rosemont,WV,Taylor,"39.281142186975906","-80.17268210479976"
"21664",Secretary,MD,Dorchester,"38.608175062513595","-75.94729909640871"
"26425",Rowlesburg,WV,Preston,"39.31158683776528","-79.68651742882533"
"21668",Sudlersville,MD,Queen Anne's,"39.18969190474716","-75.85125597494189"
"21776",New Windsor,MD,Carroll,"39.51860973126254","-77.10371458749991"
"26237",Tallmansville,WV,Upshur,"38.84772189015052","-80.15147834220147"
"26238",Volga,WV,Barbour,"39.101778698670884","-80.15841689663442"
"25855",Hilltop,WV,Fayette,"37.940492174754056","-81.15304849622153"
"25862",Lansing,WV,Fayette,"38.084481624035035","-81.05177381239956"
"25865",Lester,WV,Raleigh,"37.730718447505105","-81.35208757654208"
"25868",Lookout,WV,Fayette,"38.07171862903866","-80.96459033123045"
"25873",Mac Arthur,WV,Raleigh,"37.75122982124249","-81.2150768735698"
"25875",Mc Graws,WV,Wyoming,"37.66911472924041","-81.45956201500128"
"25878",Midway,WV,Raleigh,"37.713032811364094","-81.22454117035069"
"25879",Minden,WV,Fayette,"37.98044852607393","-81.1044226548354"
"25882",Mullens,WV,Wyoming,"37.603626160986956","-81.3988953648227"
"25916",Sabine,WV,Wyoming,"37.67817618647111","-81.49027835244489"
"25917",Scarbro,WV,Fayette,"37.97944611026967","-81.25022137831411"
"25921",Sophia,WV,Raleigh,"37.691831522059964","-81.25876040841155"
"25942",Winona,WV,Fayette,"38.02691616059928","-80.98837861961887"
"25978",Nimitz,WV,Summers,"37.62859892342765","-80.9413889263517"
"21666",Stevensville,MD,Queen Anne's,"38.939566849939084","-76.33270833944061"
"26426",Salem,WV,Harrison,"39.28757180004379","-80.5631339704116"
"21777",Point Of Rocks,MD,Frederick,"39.279244372420564","-77.52869680981978"
"21538",Kitzmiller,MD,Garrett,"39.40132524744763","-79.22109008362649"
"26253",Beverly,WV,Randolph,"38.80773773748973","-79.85653231896542"
"26259",Dailey,WV,Randolph,"38.82536808888036","-79.91531965853112"
"21218",Baltimore,MD,Baltimore City,"39.330402295199264","-76.60229680900049"
"25936",Thurmond,WV,Fayette,"37.92916133383086","-81.0310617588712"
"25951",Hinton,WV,Summers,"37.655326249603995","-80.87198450945365"
"25985",Sandstone,WV,Summers,"37.75747039017749","-80.83036650044126"
"25880",Mount Hope,WV,Fayette,"37.87671732599507","-81.20096868474404"
"21206",Baltimore,MD,Baltimore City,"39.33933736458334","-76.53701037641385"
"25902",Odd,WV,Raleigh,"37.56299062411606","-81.21115618489831"
"25904",Pax,WV,Fayette,"37.9127622205625","-81.25213698598203"
"25907",Prince,WV,Fayette,"37.85929140191565","-81.07200371128194"
"21209",Baltimore,MD,Baltimore City,"39.372658653162944","-76.66804111659036"
"21671",Tilghman,MD,Talbot,"38.69650711062431","-76.33562945892977"
"21672",Toddville,MD,Dorchester,"38.27685688623447","-76.06115287097064"
"26601",Sutton,WV,Braxton,"38.633059987293244","-80.65672825656824"
"26611",Cedarville,WV,Gilmer,"38.846364748898914","-80.83335853301803"
"26621",Flatwoods,WV,Braxton,"38.721856123256366","-80.56057100983993"
"26623",Frametown,WV,Braxton,"38.65763757718166","-80.87718664751097"
"26627",Heaters,WV,Braxton,"38.75576763072065","-80.59426681099453"
"26261",Richwood,WV,Nicholas,"38.18882994903195","-80.50452429097304"
"26264",Durbin,WV,Pocahontas,"38.58922833536134","-79.82276295114747"
"26267",Ellamore,WV,Randolph,"38.92553839892187","-80.08071561831912"
"26268",Glady,WV,Randolph,"38.71453554550967","-79.8227922343353"
"21550",Oakland,MD,Garrett,"39.39103684769294","-79.39082305862462"
"26271",Hendricks,WV,Tucker,"39.04899989964537","-79.55191602718887"
"26275",Junior,WV,Barbour,"38.98310068360367","-79.94578744069577"
"26288",Webster Springs,WV,Webster,"38.49663615149324","-80.3645084640891"
"26292",Thomas,WV,Tucker,"39.15248451168202","-79.5291589689677"
"26293",Valley Bend,WV,Randolph,"38.78235611517914","-79.93651925010978"
"26296",Whitmer,WV,Randolph,"38.75429427265851","-79.56368321134599"
"25913",Ravencliff,WV,Wyoming,"37.70782796609669","-81.4729706067561"
"25915",Rhodell,WV,Raleigh,"37.61573336516882","-81.28695477612601"
"21207",Gwynn Oak,MD,Baltimore,"39.324158046482054","-76.72021341229762"
"25920",Slab Fork,WV,Raleigh,"37.68642825848853","-81.33666134797777"
"21208",Pikesville,MD,Baltimore,"39.384017121894956","-76.72546665520495"
